stationId,stationName,parkingQRBikeCnt,parkingELECBikeCnt,stationLongitude,stationLatitude,parkingTotBikeCnt,goo,dong
ST-4,102. 망원역 1번출구 앞,2,5,126.91062927,37.5556488,7,마포구,서교동
ST-5,103. 망원역 2번출구 앞,0,5,126.91083527,37.55495071,5,마포구,망원1동
ST-6,104. 합정역 1번출구 앞,27,2,126.91508484,37.55073929,29,마포구,서교동
ST-7,105. 합정역 5번출구 앞,1,1,126.91482544,37.55000687,2,마포구,서교동
ST-8,106. 합정역 7번출구 앞,0,0,126.91282654,37.54864502,0,마포구,합정동
ST-9,107. 신한은행 서교동지점,7,3,126.91850281,37.55751038,10,마포구,서교동
ST-10,108. 서교동 사거리,17,2,126.91861725,37.55274582,19,마포구,서교동
ST-15,111. 상수역 2번출구 앞,0,0,126.92353058,37.54787064,0,마포구,서강동
ST-16,112. 극동방송국 앞,4,1,126.92320251,37.54920197,5,마포구,서강동
ST-18,113. 홍대입구역 2번출구 앞,72,5,126.9238205,37.5574379,77,마포구,서교동
ST-20,114. 홍대입구역 8번출구 앞,18,0,126.92442322,37.55706024,18,마포구,서교동
ST-12,115. 마스타 빌딩 앞,10,0,126.92711639,37.55893326,10,서대문구,신촌동
ST-17,117. 홍은사거리,1,3,126.94132996,37.59115982,4,서대문구,홍제1동
ST-19,118. 광흥창역 2번출구 앞,2,1,126.9317627,37.54773331,3,마포구,서강동
ST-21,119. 서강나루 공원,5,11,126.93146515,37.54520798,16,마포구,신수동
ST-22,120. 신수동 사거리,0,1,126.93411255,37.54524231,1,마포구,신수동
ST-23,121. 마포소방서 앞,0,0,126.93317413,37.54976654,0,마포구,신수동
ST-24,122. 신성기사식당 앞,1,5,126.93837738,37.54745865,6,마포구,신수동
ST-25,123. 문화촌 공원,5,0,126.9473877,37.59432983,5,서대문구,홍제3동
ST-26,124. 서강대 정문 건너편,2,0,126.93698883,37.55113983,2,마포구,신수동
ST-28,126. 서강대 후문 옆,1,5,126.94384766,37.55041122,6,마포구,대흥동
ST-29,127. 현대벤처빌 앞,2,1,126.93695068,37.5535202,3,마포구,대흥동
ST-30,128. 신촌역(2호선) 1번출구 옆,2,2,126.93634033,37.55549622,4,서대문구,신촌동
ST-31,129. 신촌역(2호선) 6번출구 옆,0,0,126.93756866,37.55505371,0,마포구,대흥동
ST-32,130. 신촌역(2호선) 7번출구 앞,10,0,126.93615723,37.55485916,10,마포구,대흥동
ST-33,131. 증산2교,17,8,126.91110229,37.5841713,25,서대문구,북가좌2동
ST-35,133. 해담는다리,4,8,126.90899658,37.58203125,12,서대문구,북가좌2동
ST-36,134. 연세로 명물길,5,0,126.93807983,37.55789185,5,서대문구,신촌동
ST-37,135. 명물길 원형무대 앞,10,0,126.93984222,37.55922699,10,서대문구,신촌동
ST-39,137. 신촌기차역입구 교차로,0,0,126.9431839,37.55681229,0,서대문구,신촌동
ST-40,138. 신촌동 제1공영주차장 앞,6,5,126.93452454,37.5591774,11,서대문구,신촌동
ST-43,139. 연세대 정문 건너편,1,0,126.93441772,37.55986404,1,서대문구,신촌동
ST-41,140. 이화여대 후문,10,0,126.94073486,37.560009,10,서대문구,신촌동
ST-42,141. 연대 대운동장 옆,5,0,126.93264771,37.56238174,5,서대문구,신촌동
ST-200,142. 아현역 4번출구 앞,1,0,126.95566559,37.55720139,1,마포구,아현동
ST-201,143. 공덕역 2번출구,13,2,126.9502182,37.54457855,15,마포구,아현동
ST-202,144. 공덕역 8번출구,6,1,126.95132446,37.5435791,7,마포구,공덕동
ST-203,145. 공덕역 5번출구,6,10,126.95163727,37.54425049,16,마포구,공덕동
ST-204,146. 마포역 2번출구 뒤,24,6,126.94582367,37.53993607,30,마포구,용강동
ST-205,147. 마포역 4번출구 뒤,6,6,126.94591522,37.53927231,12,마포구,도화동
ST-206,148. 용강동 주민센터 앞,6,4,126.94302368,37.54234695,10,마포구,용강동
ST-207,150. 서강대역 2번출구 앞,0,0,126.93434143,37.55295563,0,마포구,대흥동
ST-210,153. 성산2교 사거리,0,0,126.91261292,37.56469727,0,마포구,성산1동
ST-211,154. 마포구청역 ,2,2,126.90549469,37.56090927,4,마포구,성산1동
ST-212,155. 가좌역1 번출구 앞,1,4,126.91504669,37.56829453,5,마포구,성산2동
ST-213,156. 서울서부지방법원 앞,1,6,126.95491791,37.54933167,7,마포구,공덕동
ST-214,157. 애오개역 4번출구 앞,2,0,126.95668793,37.5530014,2,마포구,공덕동
ST-216,159. 이대역 4번 출구,0,0,126.94634247,37.55695343,0,서대문구,신촌동
ST-217,160. 북아현동 가구거리,0,0,126.9593811,37.55754852,0,마포구,아현동
ST-218,161. 무악재역1번 출구,0,0,126.95064545,37.58224487,0,서대문구,홍제2동
ST-219,162. 봉원고가차도 밑,0,0,126.94667053,37.56626129,0,서대문구,신촌동
ST-220,163. 명지전문대학교 정문 앞,0,1,126.9249649,37.58369827,1,서대문구,홍은2동
ST-221,164. 북가좌1동 주민센터 ,0,0,126.91004944,37.57447815,0,서대문구,북가좌1동
ST-222,165. 중앙근린공원,0,2,126.91394043,37.57513809,2,서대문구,북가좌1동
ST-223,166. 가재울 초등학교,0,0,126.91923523,37.57381821,0,서대문구,남가좌1동
ST-224,167. 연가초등학교 옆,0,0,126.91712952,37.57946014,0,서대문구,남가좌2동
ST-226,169. 북가좌 삼거리,1,0,126.90779877,37.57300186,1,서대문구,북가좌1동
ST-227,170. DMC파크뷰자이아파트 302동 앞,0,1,126.9224472,37.57311249,1,서대문구,남가좌2동
ST-228,171. 임광빌딩 앞,1,0,126.96727753,37.56472397,1,서대문구,충현동
ST-230,173. 서대문역 8번출구 앞,0,1,126.96614838,37.56477737,1,서대문구,충현동
ST-231,175. 홍연2교옆,1,0,126.93088531,37.57806778,1,서대문구,남가좌1동
ST-555,176. 명지대학교 도서관,9,0,126.92402649,37.58109665,9,서대문구,남가좌2동
ST-345,177. 북가좌 초등학교,4,1,126.90965271,37.57763672,5,서대문구,북가좌1동
ST-349,178. 증산3교 앞,2,3,126.90634918,37.57987595,5,서대문구,북가좌1동
ST-232,179. 가좌역 4번출구 앞,0,15,126.91529846,37.56877518,15,서대문구,남가좌1동
ST-233,180. 충정로역 7번출구 아래,0,0,126.96246338,37.55996704,0,서대문구,충현동
ST-339,181. 망원초록길 입구,1,2,126.90267181,37.55134201,3,망원1동,4통
ST-340,182. 망원2빗물펌프장 앞,0,0,126.90306091,37.5513649,0,마포구,망원1동
ST-341,183. 하늘채코오롱아파트 건너편,2,5,126.91932678,37.56538773,7,마포구,연남동
ST-342,184. 7번가피자 서교망원점,9,5,126.90775299,37.55894852,14,마포구,성산1동
ST-343,185. 마포 신수공원 앞,0,0,126.93429565,37.54254532,0,마포구,신수동
ST-344,186. 월드컵공원,10,9,126.89820862,37.56396484,19,마포구,성산2동
ST-346,188. 홍은동 정원여중 입구,8,1,126.93512726,37.58638763,9,서대문구,홍은2동
ST-347,191. 서우빌딩,9,5,126.91073608,37.57889175,14,서대문구,북가좌2동
ST-348,192. 연서어린이공원,0,2,126.92306519,37.57222748,2,서대문구,연희동
ST-350,194. 증산교 앞,3,1,126.90296936,37.57731628,4,서대문구,북가좌1동
ST-351,195. 모래내고가차도 ,2,0,126.91780853,37.56765747,2,서대문구,연희동
ST-352,196. 연희교차로 인근,0,0,126.92589569,37.56612015,0,서대문구,연희동
ST-354,198. 충정2교,0,0,126.96377563,37.5621376,0,서대문구,충현동
ST-443,199. 서울 월드컵 경기장,6,5,126.89644623,37.56684494,11,마포구,성산2동
ST-45,200. 국회의원회관,3,0,126.91391754,37.52841568,3,영등포구,여의동
ST-46,201. 진미파라곤 앞,24,0,126.92133331,37.53123856,24,영등포구,여의동
ST-47,202. 국민일보 앞,113,13,126.92453003,37.52881622,126,영등포구,여의동
ST-51,203. 국회의사당역 3번출구 옆,26,0,126.91870117,37.5280571,26,영등포구,여의동
ST-50,204. 국회의사당역 5번출구 옆,14,1,126.91702271,37.52816391,15,영등포구,여의동
ST-52,205. 산업은행 앞,47,2,126.92050934,37.52626419,49,영등포구,여의동
ST-53,206. KBS 앞,49,0,126.91802216,37.52466583,49,영등포구,여의동
ST-73,207. 여의나루역 1번출구 앞,10,1,126.93190002,37.52715683,11,영등포구,여의동
ST-55,209. 유진투자증권빌딩 앞,42,0,126.92783356,37.52461243,42,영등포구,여의동
ST-59,213. KT앞,20,3,126.91895294,37.52190781,23,영등포구,여의동
ST-60,214. 금융감독원 앞,54,4,126.9208374,37.5230217,58,영등포구,여의동
ST-64,215. 여의도고교 앞,2,3,126.93490601,37.52483749,5,영등포구,여의동
ST-66,217. NH농협은행 앞,95,2,126.93036652,37.52207947,97,영등포구,여의동
ST-62,219. 롯데캐슬엠파이어 옆,28,0,126.92583466,37.52069473,28,영등포구,여의동
ST-63,220. 미성아파트 A동 앞,4,0,126.92604828,37.5193634,4,영등포구,여의동
ST-67,221. 여의도초교 앞,0,0,126.93778992,37.52267456,0,영등포구,여의동
ST-68,222. 시범아파트버스정류장 옆,23,4,126.93688965,37.51902008,27,영등포구,여의동
ST-69,223. 진주아파트상가 앞,14,1,126.9333725,37.51913071,15,영등포구,여의동
ST-70,224. 롯데캐슬 앞,0,0,126.93236542,37.5200882,0,영등포구,여의동
ST-71,225. 앙카라공원 앞,4,1,126.92961884,37.51758575,5,영등포구,여의동
ST-72,226. 샛강역 1번출구 앞,7,3,126.92841339,37.51776505,10,영등포구,여의동
ST-277,227. 양평2나들목 보행통로 입구,8,1,126.88835907,37.54466629,9,영등포구,양평2동
ST-278,228. 선유도역 3번출구 앞,16,6,126.89450836,37.53845978,22,영등포구,양평2동
ST-279,229. 양평1 보행육교 앞,52,9,126.8921814,37.53587341,61,영등포구,양평2동
ST-413,230. 영등포구청역 1번출구,12,1,126.89621735,37.52463531,13,영등포구,당산1동
ST-280,231. 남부고용노동지청 남측,18,1,126.89182281,37.52450562,19,영등포구,양평1동
ST-281,232. 양평우림 이비즈센타 앞,14,3,126.88781738,37.52565002,17,영등포구,양평1동
ST-282,233. 양평1동 YP센터 앞,25,0,126.89164734,37.52848816,25,영등포구,양평1동
ST-284,235. 신길동 우리은행 옆,1,1,126.91023254,37.50456619,2,영등포구,신길3동
ST-285,236. 문래동자이아파트 앞,10,0,126.89461517,37.51615524,10,영등포구,문래동
ST-286,237. 보라매 두산위브 건너편,2,0,126.91480255,37.49651337,2,동작구,신대방2동
ST-287,238. 제2구민체육센타 앞,3,1,126.90275574,37.52638626,4,영등포구,당산1동
ST-288,239. 유스호스텔 앞,8,5,126.90328217,37.5258522,13,영등포구,영등포동
ST-289,240. 문래역 4번출구 앞,9,0,126.89557648,37.51873779,9,영등포구,문래동
ST-290,241. 신길우성1차아파트 앞 공원,0,0,126.89853668,37.50501633,0,영등포구,도림동
ST-291,242. 신길선원가와인아파트 앞,0,0,126.91022491,37.51093292,0,영등포구,도림동
ST-292,243. 이앤씨드림타워 앞,26,2,126.89138031,37.52708435,28,영등포구,양평1동
ST-293,244. 영등포삼환아파트 앞,1,0,126.90570831,37.53007889,1,영등포구,영등포동
ST-294,245. 삼성생명 당산사옥 앞,13,3,126.89662933,37.52826309,16,영등포구,당산2동
ST-295,247. 당산역 10번출구 앞,20,4,126.90223694,37.53342056,24,영등포구,당산2동
ST-296,248. 초원아파트 앞,9,1,126.92420959,37.53105545,10,영등포구,여의동
ST-297,249. 여의도중학교 옆,5,0,126.93611908,37.52434921,5,영등포구,여의동
ST-298,250. 대림아파트 사거리,0,0,126.92308044,37.50764084,0,영등포구,신길7동
ST-299,251. 서울지방병무청 버스정류장,1,0,126.92195129,37.50449371,1,영등포구,신길7동
ST-300,252. 보라매역4번출구,20,3,126.91994476,37.49982834,23,영등포구,신길6동
ST-302,254. 도림신협 앞,35,2,126.90341949,37.50380325,37,영등포구,신길5동
ST-303,255. 도림사거리,0,2,126.90113068,37.50657272,2,영등포구,신길3동
ST-304,256. 동아에코빌입구,1,0,126.89929962,37.50947571,1,영등포구,도림동
ST-306,258. 신길역3번출구,0,0,126.91429901,37.51769257,0,영등포구,영등포동
ST-307,259. 대방역6번출구,1,5,126.92593384,37.51359177,6,영등포구,신길7동
ST-414,260. 여의도 마리나선착장 앞,7,1,126.91216278,37.53365707,8,영등포구,여의동
ST-416,262. 영문초등학교 사거리,18,1,126.88918304,37.51992798,19,영등포구,문래동
ST-417,263. 근로자회관 사거리,13,1,126.8886261,37.51715088,14,영등포구,문래동
ST-418,264. 교보생명보험 앞,16,4,126.89161682,37.52193069,20,영등포구,당산1동
ST-419,265. 영등포유통상가 사거리,26,0,126.89653778,37.52113342,26,영등포구,당산1동
ST-420,266. 영등포청과시장 사거리,18,3,126.90119171,37.52029419,21,영등포구,영등포동
ST-421,267. 삼성화재 사옥 옆,4,2,126.89830017,37.53596115,6,영등포구,양평2동
ST-422,268. 그랜드컨벤션센터 앞,10,1,126.90000153,37.53471756,11,영등포구,당산2동
ST-424,270. 증권거래소후문교차로,31,0,126.92710114,37.52234268,31,영등포구,여의동
ST-425,271. 샛강생태공원방문자센터 앞,10,0,126.9216156,37.51896286,10,영등포구,여의동
ST-426,272. 당산육갑문,18,4,126.90367889,37.53533936,22,영등포구,당산2동
ST-1320,275. 신동아아파트,1,2,126.88568115,37.52269745,3,영등포구,양평1동
ST-1321,276. 영등포로터리2,0,0,126.9126358,37.51828384,0,영등포구,영등포동
ST-1323,278. 쌍용플레티넘오피스텔,3,0,126.89523315,37.50793076,3,영등포구,도림동
ST-1353,279. 영등포 푸르지오 아파트 B,2,0,126.90446472,37.51322937,2,영등포구,영등포본동
ST-1539,280. 양평동6차현대아파트 앞,15,0,126.8944397,37.53210068,15,영등포구,양평2동
ST-1540,281. 대림신동아아파트 앞,6,1,126.89398193,37.49824142,7,영등포구,대림3동
ST-1541,282. 신한은행 대림동지점,8,3,126.90487671,37.48752975,11,영등포구,대림2동
ST-1649,283. 아크로타워 스퀘어(영등포시장),0,0,126.90721893,37.52251816,0,영등포구,영등포동
ST-1650,284. 센트럴 푸르지오 시티 앞,9,2,126.90222931,37.51821136,11,영등포구,영등포동
ST-1651,285. 콤텍시스템 앞,20,0,126.89723969,37.49985886,20,영등포구,대림3동
ST-1652,286. 우성아파트 교차로,15,4,126.89974976,37.49457169,19,영등포구,대림2동
ST-1653,287. 영등포전화국사거리 (서강어린이공원),0,0,126.90573883,37.52576828,0,영등포구,영등포동
ST-1677,288. 쌍용예가(구청별관),28,0,126.89338684,37.52809906,28,영등포구,양평1동
ST-1697,289. 대림3동사거리,9,3,126.89800262,37.49980927,12,영등포구,대림3동
ST-1698,290. 새말소공원,23,1,126.89782715,37.5315094,24,영등포구,당산2동
ST-1699,291. 문래동 하이테크 시티,71,2,126.89939117,37.51412964,73,영등포구,문래동
ST-1700,292. 영일 어린이공원,0,1,126.90406799,37.51012039,1,영등포구,도림동
ST-1701,293. 충북 미래관,0,0,126.90757751,37.52917099,0,영등포구,당산2동
ST-1967,295.영등포공원 분수대 앞,0,0,126.91170502,37.51481247,0,영등포구,영등포본동
ST-1968,296.KT플라자 영등포점,0,0,126.90538025,37.52630234,0,영등포구,영등포동
ST-1969,297.국회3문,1,1,126.91267395,37.52863693,2,영등포구,여의동
ST-1970,298.KBS 연구동 건너편,30,3,126.91429901,37.52750778,33,영등포구,여의동
ST-1971,299.여의도 순복음교회,2,0,126.92245483,37.53179169,2,영등포구,여의동
ST-116,300. 정동사거리,2,0,126.96923065,37.56805038,2,중구,소공동
ST-117,301. 경복궁역 7번출구 앞,11,1,126.97145081,37.57579422,12,종로구,사직동
ST-118,302. 경복궁역 4번출구 뒤,2,0,126.97406006,37.57594681,2,종로구,사직동
ST-119,303. 광화문역 1번출구 앞,13,1,126.97466278,37.57176971,14,종로구,사직동
ST-121,305. 종로구청 옆,23,2,126.97833252,37.57255936,25,종로구,종로1·2·3·4가동
ST-123,307. 서울역사박물관 앞,8,6,126.97109985,37.56999969,14,종로구,사직동
ST-124,308. 광화문 S타워 앞,55,5,126.97393799,37.56996918,60,종로구,사직동
ST-125,309. 광화문역 6번출구 옆 B,3,2,126.97615814,37.56996155,5,종로구,사직동
ST-126,310. 청계광장 옆,3,2,126.9774704,37.56887817,5,중구,명동
ST-130,314. 국립현대미술관,1,0,126.98085785,37.5797081,1,종로구,삼청동
ST-132,316. 종각역 1번출구 앞,13,1,126.98178864,37.57039642,14,종로구,종로1·2·3·4가동
ST-134,318. 광교사거리 남측,11,1,126.98231506,37.56863403,12,중구,명동
ST-136,320. 을지로입구역 4번출구 앞,12,0,126.98358917,37.56622314,12,중구,명동
ST-137,321. KEB 하나금융그룹 명동사옥 옆,19,1,126.98413849,37.56546402,20,중구,명동
ST-138,322. 명동성당 앞,3,1,126.98696899,37.56447601,4,중구,명동
ST-140,324. 신세계백화점 본점 앞,9,1,126.9805069,37.56134415,10,중구,회현동
ST-142,326. 안국역 5번출구 앞,0,2,126.98616028,37.57624054,2,종로구,종로1·2·3·4가동
ST-143,327. 낙원상가 옆,2,1,126.9874649,37.57335663,3,종로구,종로1·2·3·4가동
ST-144,328. 탑골공원 앞,2,0,126.9881897,37.57039642,2,종로구,종로1·2·3·4가동
ST-145,329. 청계2가 사거리 옆,17,1,126.98788452,37.56848526,18,종로구,종로1·2·3·4가동
ST-147,331. 을지로2가 사거리 북측,18,0,126.98720551,37.56638336,18,중구,명동
ST-148,332. 을지로2가 사거리 남측,1,0,126.98779297,37.56599045,1,중구,명동
ST-150,334. 종로3가역 2번출구 뒤,1,0,126.99179077,37.5705986,1,종로구,종로1·2·3·4가동
ST-151,335. 종로3가역 15번출구 앞,4,0,126.99165344,37.57019424,4,종로구,종로1·2·3·4가동
ST-152,336. 충무로역 6번출구 앞,1,0,126.99311066,37.56144714,1,중구,필동
ST-153,337. 창경궁 입구,1,1,126.99647522,37.57897949,2,종로구,이화동
ST-154,338. 세운스퀘어 앞,0,1,126.99712372,37.57095718,1,종로구,종로1·2·3·4가동
ST-155,339. 종로4가 사거리,2,0,126.99819183,37.57106781,2,종로구,종로1·2·3·4가동
ST-156,340. 혜화동 로터리,0,0,127.00067902,37.58562851,0,종로구,혜화동
ST-157,341. 혜화역 3번출구 뒤,1,0,127.00178528,37.58156967,1,종로구,이화동
ST-158,342. 대학로 마로니에공원,3,1,127.00253296,37.57978439,4,종로구,이화동
ST-159,343. 힐스테이트창경궁 아파트 앞,2,0,127.00469971,37.57561111,2,종로구,종로5·6가동
ST-160,344. 성균관대 E하우스 앞,0,0,127.0065918,37.57419968,0,종로구,종로5·6가동
ST-161,345. 서울보증보험본사 앞,6,0,127.00070953,37.57330704,6,종로구,종로5·6가동
ST-162,346. 맥스타일 앞,3,2,127.00988007,37.56918335,5,중구,광희동
ST-163,347. 동대문역사문화공원역 9번출구 앞,0,0,127.00784302,37.56533051,0,중구,광희동
ST-183,348. 독립문역 사거리,8,1,126.96078491,37.57202911,9,종로구,교남동
ST-165,349. 어린이도서관,0,0,126.96858978,37.57633209,0,종로구,사직동
ST-167,351. 청운초교 앞 삼거리,0,0,126.97041321,37.58496857,0,종로구,청운효자동
ST-168,352. 중앙고입구 삼거리,3,0,126.98523712,37.58341599,3,종로구,가회동
ST-169,353. 재동초교 앞 삼거리,7,0,126.9849472,37.57938766,7,종로구,가회동
ST-170,354. 포르투갈 대사관 앞,14,2,126.98896027,37.57915497,16,종로구,가회동
ST-171,355. 서울사대부설초등학교 앞,1,1,127.00245667,37.57650757,2,종로구,이화동
ST-172,356. KT혜화지사 앞,7,2,127.00205994,37.57714462,9,종로구,이화동
ST-173,358. 성균관대입구 사거리 A,7,0,126.99853516,37.58250046,7,종로구,혜화동
ST-174,359. 원남동사거리,1,2,126.99768066,37.57606125,3,종로구,종로1·2·3·4가동
ST-175,361. 동묘앞역 1번출구 뒤,4,1,127.01590729,37.57324219,5,종로구,숭인1동
ST-176,362. 청계8가사거리 A,0,0,127.02304077,37.57219696,0,종로구,숭인2동
ST-177,363. 신설동역 11번출구 뒤,1,2,127.02285004,37.57559204,3,종로구,숭인2동
ST-178,364. 창신역 1번출구 앞,0,0,127.01508331,37.57933426,0,종로구,숭인1동
ST-180,367. 독립문역 3-1번출구 ,15,2,126.95851898,37.57415771,17,종로구,무악동
ST-181,368. SK 서린빌딩 앞,51,3,126.98053741,37.5692482,54,종로구,종로1·2·3·4가동
ST-185,370. 시청역(2호선) 9번출구 뒤,36,1,126.97483826,37.56322861,37,중구,소공동
ST-186,371. 동대입구역 6번출구 뒤,4,0,127.00553894,37.55887222,4,중구,장충동
ST-187,372. 약수역 3번출구 뒤,0,0,127.01119995,37.55429459,0,중구,약수동
ST-189,374. 청구역 2번출구 앞,0,0,127.01407623,37.5604744,0,중구,동화동
ST-194,379. 서울역9번출구,2,1,126.97335815,37.55599976,3,중구,회현동
ST-195,380. CJ제일제당 앞,11,1,127.00274658,37.56386566,12,중구,광희동
ST-196,381. 장충체육관,0,0,127.00698853,37.55853271,0,중구,장충동
ST-197,382. 약수역 10번출구 앞,0,1,127.01004791,37.55519867,1,중구,다산동
ST-198,383. 신당역 12번 출구 뒤,13,8,127.0164032,37.5658493,21,중구,신당동
ST-199,384. 종로학원본원 ,0,0,126.96850586,37.55978012,0,중구,중림동
ST-336,385. 종각역 5번출구,22,3,126.98265839,37.56983566,25,종로구,종로1·2·3·4가동
ST-338,387. 훈련원공원주차장 앞,5,2,127.00346375,37.56699371,7,중구,을지로동
ST-444,388. 동성중학교 앞,0,0,127.0016098,37.58573532,0,종로구,혜화동
ST-943,389. 을지로4가역 1번출구,1,1,126.99660492,37.5667305,2,중구,을지로동
ST-944,390. 충무로역 1번출구,3,0,126.9953537,37.56138992,3,중구,필동
ST-977,391. 시립미술관,4,2,126.97340393,37.56505203,6,중구,소공동
ST-1372,393. 동대문역 8번 출구,9,4,127.00937653,37.57014084,13,종로구,종로5·6가동
ST-1373,394. 경희궁 자이 3단지,5,1,126.96591949,37.56748962,6,종로구,교남동
ST-1374,395. 경희궁 자이 2단지,1,0,126.96456146,37.56885529,1,종로구,교남동
ST-1432,397. 종묘공영주차장 건너편,6,1,126.99663544,37.57048035,7,종로구,종로1·2·3·4가동
ST-1435,398. 을지로3가역 3번출구,1,0,126.99243927,37.56655884,1,중구,을지로동
ST-1436,399. 서울역 센트럴 자이아파트,0,0,126.96540833,37.55410767,0,중구,중림동
ST-110,400. 상암한화오벨리스크 1차 앞,0,0,126.88300323,37.58752441,0,마포구,상암동
ST-76,401. 상암월드컵파크 10단지 앞,0,2,126.88161469,37.58618927,2,마포구,상암동
ST-77,402. 상암월드컵파크 9단지 앞,2,2,126.87983704,37.5829277,4,마포구,상암동
ST-78,403. 부엉이공원 앞,0,0,126.88472748,37.58559036,0,마포구,상암동
ST-80,405. DMC빌 앞,12,1,126.88578796,37.58265686,13,마포구,상암동
ST-81,406. 상암월드컵파크 7단지 앞,10,1,126.88087463,37.58111191,11,마포구,상암동
ST-83,407. 마포구 육아종합지원센터,5,1,126.88367462,37.58063126,6,마포구,상암동
ST-84,408. LG CNS앞,16,2,126.88665009,37.58081055,18,마포구,상암동
ST-86,409. 누리꿈스퀘어 옆,61,3,126.88916016,37.57939911,64,마포구,상암동
ST-88,410. 상암중학교 옆,10,0,126.88747406,37.57739258,10,마포구,상암동
ST-90,411. DMC홍보관,26,0,126.89147186,37.5779953,26,마포구,상암동
ST-91,412. DMC산학협력연구센터 앞,25,0,126.89079285,37.57565689,25,마포구,상암동
ST-92,413. 상암월드컵파크 3단지 후문,1,0,126.88968658,37.57147598,1,마포구,상암동
ST-94,414. 상암동주민센터 옆,13,6,126.89447021,37.57822037,19,마포구,상암동
ST-95,415. DMC역 9번출구 앞,3,0,126.89736176,37.57746887,3,마포구,상암동
ST-96,416. 상암월드컵파크 1단지 교차로,13,0,126.89444733,37.57566452,13,마포구,상암동
ST-93,417. DMC역 2번출구 옆,28,2,126.8999176,37.57506943,30,마포구,상암동
ST-89,418. 월드컵경기장역 3번출구 옆,1,2,126.89889526,37.57048035,3,마포구,성산2동
ST-87,419. 홈플러스 마포점 앞,3,0,126.89942932,37.56842041,3,마포구,성산2동
ST-85,420. 서울시 공공자전거 상암센터,52,3,126.8961792,37.56624603,55,마포구,성산2동
ST-82,421. 마포구청 앞,1,0,126.9018631,37.56574631,1,마포구,성산2동
ST-968,422. 문화비축기지,3,1,126.89440155,37.56897736,4,마포구,성산2동
ST-990,424. 롯데하이마트 (상암월드컵점) ,12,1,126.8980484,37.57361984,13,마포구,상암동
ST-991,425. DMC첨단산업센터,3,0,126.88559723,37.58450317,3,마포구,상암동
ST-992,426. 서울신용보증재단,9,8,126.95417786,37.54906082,17,마포구,아현동
ST-1397,427. 성산시영아파트,3,0,126.90381622,37.56958389,3,마포구,성산2동
ST-1437,428. 명보사거리,1,2,126.99143219,37.56439972,3,중구,을지로동
ST-1438,429. 송도병원,0,0,127.00734711,37.54988861,0,중구,다산동
ST-1439,430. 장충동먹자골목 앞,1,0,127.0062561,37.56212616,1,중구,장충동
ST-1440,431. 청계천 영도교,1,1,127.01974487,37.5710144,2,중구,황학동
ST-1494,432. 마포중앙도서관,14,3,126.90820312,37.56333923,17,마포구,성산1동
ST-1668,433. 을지로입구역 2번출구,20,0,126.98229218,37.56634521,20,중구,명동
ST-1669,434. 신당 래미안 버스정류장,0,5,127.02393341,37.56148911,5,성동구,왕십리2동
ST-1670,435. SK 남산빌딩,3,0,126.97561646,37.55686188,3,중구,회현동
ST-1675,436. 이대역 5번출구,9,2,126.94618988,37.55659103,11,마포구,대흥동
ST-1691,437. 대흥역 1번출구,11,3,126.9409256,37.54846954,14,마포구,대흥동
ST-1692,438. 성산2-1 공영주차장,1,0,126.9067688,37.56472015,1,마포구,성산2동
ST-1754,440. 하늘공원 입구,8,0,126.88134766,37.57012177,8,마포구,상암동
ST-1761,441.염천교사거리,7,10,126.97149658,37.55989075,17,중구,소공동
ST-1768,442.서울역 서부,1,0,126.9691925,37.55641556,1,중구,중림동
ST-1769,443.호암아트홀,0,2,126.97071838,37.5621109,2,중구,소공동
ST-1771,445.대한상공회의소,21,6,126.97410583,37.56015396,27,중구,소공동
ST-938,446. 상명대입구,9,0,126.95783234,37.60012817,9,종로구,홍은1동
ST-939,447. 신영동삼거리,3,0,126.96194458,37.60399246,3,종로구,부암동
ST-941,449. 일성아파트,4,2,126.97286224,37.60871887,6,종로구,평창동
ST-978,450. 효자동 삼거리,0,0,126.97254944,37.58360291,0,종로구,청운효자동
ST-979,451. 청와대앞길,0,0,126.97966766,37.58351517,0,종로구,삼청동
ST-1605,452. 동대문 종합시장 버스정류장,2,0,127.00440979,37.57123947,2,종로구,종로5·6가동
ST-1606,453. 종로오가 지하쇼핑센터 14번출구,2,0,127.00067139,37.57114029,2,종로구,종로5·6가동
ST-1607,454. 종로2가 버스정류장 (종각방향),9,0,126.98638153,37.57035828,9,종로구,종로1·2·3·4가동
ST-1608,455. 종로6가역 버스정류장(동대문 방향),3,0,127.00605774,37.570961,3,종로구,종로5·6가동
ST-1609,456. 숭인2동 주민센터 입구,0,1,127.0198288,37.57447052,1,종로구,숭인2동
ST-1610,457. 종로꽃시장 입구 옆,5,1,127.00720978,37.57131958,6,종로구,종로5·6가동
ST-1611,458. 광화문역 5번출구,12,3,126.97756958,37.56989288,15,종로구,종로1·2·3·4가동
ST-1619,461. 서울지방경찰청,1,0,126.97236633,37.57436371,1,종로구,사직동
ST-1752,462. 신영동삼거리(북악터널방향),1,0,126.96206665,37.60351181,1,종로구,평창동
ST-1756,464. 삼청동 골목,14,2,126.98169708,37.58419037,16,종로구,삼청동
ST-1759,465. 삼청공원 앞,0,0,126.9835968,37.58760452,0,종로구,삼청동
ST-1772,466.롯데호텔,19,1,126.97981262,37.56584167,20,중구,명동
ST-1773,467.한국은행,12,1,126.98086548,37.5622139,13,중구,소공동
ST-1774,468.웨스틴 조선호텔,6,1,126.97948456,37.56415939,7,중구,소공동
ST-1775,469.회현역 1번출구,1,0,126.98014069,37.5592308,1,중구,회현동
ST-1776,470.회현역 7번출구,1,0,126.98000336,37.55974579,1,중구,회현동
ST-1777,471.회현사거리 남측,7,1,126.98265076,37.56035995,8,중구,명동
ST-1778,472.삼일교(시그니쳐 타워),19,1,126.98840332,37.56787109,20,중구,명동
ST-1779,473.을지로4가역 9번출구,1,0,126.99798584,37.56605148,1,중구,을지로동
ST-1780,474.동대문역사문화공원역 1번출구 뒤편,28,9,127.00849152,37.56629944,37,중구,광희동
ST-1781,475.DDP 패션몰,19,12,127.0118103,37.56764984,31,중구,신당동
ST-1782,476.광희문,1,0,127.00995636,37.56443024,1,중구,광희동
ST-1783,477.앰배서더 호텔 주변,4,0,127.00268555,37.55928802,4,중구,장충동
ST-1785,479.동대입구역 3번 출구,0,0,127.00602722,37.55937576,0,중구,장충동
ST-1786,480.약수역 6번 출구,0,0,127.01070404,37.55432129,0,중구,약수동
ST-1789,483.남산타운아파트 버스정류장,0,0,127.00643921,37.54758453,0,중구,다산동
ST-1790,484.도동삼거리,1,0,126.97742462,37.55614853,1,중구,회현동
ST-1791,485.서울역5번출구,2,4,126.97319794,37.55677032,6,중구,회현동
ST-2019,486. 평창동주민센터 앞,3,1,126.96832275,37.60627365,4,종로구,평창동
ST-2146,487.신석초교앞 교차로 교통섬,6,20,126.93830872,37.54364014,26,마포구,신수동
ST-2147,488.푸르메병원,1,8,126.88021088,37.58456802,9,마포구,상암동
ST-2148,489.구룡근린공원,0,2,126.88276672,37.58320236,2,마포구,상암동
ST-2149,490.가온문화공원,29,1,126.88766479,37.58207703,30,마포구,상암동
ST-2150,491.월드컵파크 4단지,6,0,126.88806915,37.57597733,6,마포구,상암동
ST-2152,493.홍대입구역 6번출구,7,0,126.9288559,37.55657578,7,마포구,서교동
ST-2153,494.신수동주민센터,0,0,126.93502808,37.54724503,0,마포구,신수동
ST-2154,495.염리초등학교 앞,19,0,126.9469986,37.54243088,19,마포구,용강동
ST-2156,497.합정동주민센터 앞,12,3,126.91230011,37.551754,15,마포구,합정동
ST-2157,498.연남동주민센터 앞,7,2,126.92212677,37.56465149,9,마포구,연남동
ST-97,500. 어린이대공원역 3번출구 앞,0,0,127.07427216,37.54706955,0,광진구,화양동
ST-98,501. 광진구의회 앞,2,0,127.07035065,37.53730774,2,광진구,자양3동
ST-99,502. 자양(뚝섬한강공원)역 1번출구 앞,40,8,127.06719208,37.53186035,48,광진구,자양3동
ST-102,505. 자양사거리 광진아크로텔 앞,1,0,127.08224487,37.53701019,1,광진구,자양1동
ST-103,506. 금호 어울림 아파트 앞,12,2,127.05779266,37.54906082,14,성동구,송정동
ST-105,508. 성수아카데미타워 앞,2,1,127.05751038,37.54516602,3,성동구,성수2가3동
ST-107,510. 뚝도아리수정수센터 버스정류소 옆,9,2,127.04380035,37.54122162,11,성동구,성수1가1동
ST-108,511. 서울숲역 5번 출구 옆,9,1,127.04460907,37.54458237,10,성동구,성수1가1동
ST-109,512. 뚝섬역 1번 출구 옆,45,1,127.0450058,37.5485611,46,성동구,성수1가2동
ST-111,513. 뚝섬역 5번 출구 정류소 옆,23,1,127.04980469,37.54630661,24,성동구,성수1가2동
ST-112,514. 성수사거리 버스정류장 앞,19,1,127.06330872,37.54257965,20,성동구,성수2가3동
ST-113,515. 광양중학교 앞,9,4,127.08683014,37.53023529,13,광진구,자양2동
ST-114,516. 광진메디칼 앞,1,0,127.06936646,37.54840469,1,광진구,군자동
ST-234,518. 청계천 박물관 앞,1,8,127.03535461,37.57152557,9,성동구,마장동
ST-235,519. 양지사거리,3,9,127.02991486,37.56699371,12,성동구,왕십리도선동
ST-236,520. 상왕십리역 4번 출구 앞,0,0,127.03031921,37.56385803,0,성동구,왕십리도선동
ST-237,521. 왕십리역 11번 출구 앞,5,0,127.03491974,37.56144714,5,성동구,행당1동
ST-238,522. 금호역 1번출구 앞,12,1,127.01642609,37.5486412,13,성동구,금호2·3가동
ST-239,523. 옥수동성당 옆,0,4,127.01406097,37.54366302,4,성동구,옥수동
ST-240,524. 래미안금호하이리버 아파트 102동 옆,8,6,127.02505493,37.55220032,14,성동구,금호1가동
ST-241,525. 한양대병원사거리,19,0,127.04035187,37.55805206,19,성동구,사근동
ST-242,526. 용답토속공원 앞,26,2,127.05672455,37.56351089,28,성동구,용답동
ST-243,529. 장한평역 8번 출구 앞,10,4,127.06365967,37.56137085,14,성동구,용답동
ST-244,530. 청계벽산아파트 앞,2,0,127.03040314,37.56874847,2,성동구,왕십리도선동
ST-245,533. 금남시장 교차로,5,1,127.02108765,37.54814911,6,성동구,금호4가동
ST-246,534. 금호사거리,1,1,127.02572632,37.54863358,2,성동구,금호2·3가동
ST-247,535. 응봉삼거리,10,1,127.03359222,37.5539856,11,성동구,응봉동
ST-248,536. 행당역 2번출구 앞,0,0,127.02921295,37.55735016,0,성동구,행당2동
ST-249,537. 한양대후문역 부근,4,0,127.04139709,37.56035614,4,성동구,사근동
ST-250,538. 답십리역 8번출구 앞,11,4,127.05115509,37.56764984,15,성동구,용답동
ST-252,539. 군자교교차로,1,0,127.07420349,37.55979538,1,광진구,중곡1동
ST-253,540. 군자역 7번출구 베스트샵 앞,0,1,127.0786438,37.55603027,1,광진구,군자동
ST-254,542. 강변역 4번출구 뒤,45,4,127.09416199,37.53582382,49,광진구,구의3동
ST-255,543. 구의공원(테크노마트 앞),37,2,127.09467316,37.53596878,39,광진구,구의3동
ST-256,544. 광남중학교,35,8,127.10290527,37.54072952,43,광진구,광장동
ST-257,546. 잠실대교북단 교차로,0,0,127.08509064,37.53247833,0,광진구,자양1동
ST-258,548. 자양나들목,0,0,127.07485962,37.5297699,0,광진구,자양2동
ST-259,549. 아차산역 3번출구,0,0,127.08970642,37.55122375,0,광진구,구의2동
ST-251,550. 서울시설공단 앞,20,6,127.03565979,37.57164001,26,성동구,왕십리도선동
ST-377,551. 구의삼성쉐르빌 앞,7,8,127.09449768,37.54006195,15,광진구,구의3동
ST-378,552. 대림아크로리버 앞,28,1,127.0929718,37.53657913,29,광진구,구의3동
ST-381,555. 구의3동주민센터,2,0,127.09217072,37.53784943,2,광진구,구의3동
ST-357,556. 달맞이공원,6,0,127.020401,37.54205322,6,성동구,금호4가동
ST-358,557. 도선동 주민센터 앞,0,3,127.0256958,37.56764221,3,성동구,왕십리도선동
ST-359,558. 성동광진 교육지원청 앞,16,1,127.03652191,37.56460571,17,성동구,행당1동
ST-360,559. 왕십리역 4번 출구 건너편,9,1,127.03679657,37.56109619,10,성동구,행당1동
ST-361,560. 비전교회 앞,0,0,127.06893158,37.55120468,0,성동구,송정동
ST-362,561. 서울숲역 2번출구 앞,3,5,127.0446701,37.54281616,8,성동구,성수1가1동
ST-363,562. 군자지하보도 앞,1,0,127.07341003,37.55924606,1,성동구,송정동
ST-364,563. 성동세무서 건너편,36,1,127.06275177,37.5479126,37,성동구,성수2가3동
ST-365,564. 금호역 3번출구,8,1,127.01557159,37.54792786,9,성동구,금호2·3가동
ST-366,565. 옥수역 3번출구,23,12,127.01776123,37.54136658,35,성동구,옥수동
ST-368,567. 성수역 2번출구 앞,5,1,127.05708313,37.54459,6,성동구,성수2가3동
ST-369,568. 청계8가 사거리 B,0,0,127.02355957,37.57110214,0,성동구,왕십리도선동
ST-370,569. 응봉현대아파트 정류소,0,0,127.03024292,37.54958344,0,성동구,응봉동
ST-382,571. 세종대학교 대양AI센터,1,4,127.07585907,37.55039597,5,광진구,능동
ST-384,573. 구의문주차장 앞,0,0,127.08473206,37.54523087,0,광진구,구의2동
ST-385,574. 아차산역4번출구,16,1,127.08898163,37.55184937,17,광진구,능동
ST-386,575. 대원중고교 입구(대하빌딩),20,3,127.08693695,37.56429291,23,광진구,중곡4동
ST-387,576. 광나루역 3번 출구,39,7,127.10426331,37.54483032,46,광진구,광장동
ST-388,577. 광진청소년수련관,31,9,127.10613251,37.54654694,40,광진구,광장동
ST-371,578. 성동세무서 부근,32,5,127.06246185,37.54829025,37,성동구,송정동
ST-372,579. 마장역 4번출구,2,0,127.04184723,37.56520462,2,성동구,마장동
ST-375,582. 경일중학교 앞,2,2,127.0490799,37.54317856,4,성동구,성수1가1동
ST-376,583. 청계천 생태교실 앞,1,17,127.04689026,37.56797028,18,성동구,마장동
ST-445,584. 광진광장 교통섬,3,0,127.07263184,37.54782867,3,광진구,송정동
ST-446,585. 성수2가1동 공영주차장 인근,3,0,127.05548859,37.53680801,3,성동구,성수2가1동
ST-447,586. 마장동 주민센터,1,4,127.0453949,37.56594086,5,성동구,마장동
ST-482,587. 유니베라 앞,16,0,127.05264282,37.54541779,16,성동구,성수2가3동
ST-483,588. 뚝섬 유원지역,1,5,127.06749725,37.53268814,6,광진구,자양3동
ST-506,589. 성수역3번출구,45,6,127.05665588,37.54415894,51,성동구,성수2가3동
ST-972,590. 건국대학교 (입학정보관),11,1,127.07336426,37.53989029,12,광진구,화양동
ST-973,591. 건국대학교 (행정관),23,0,127.07537079,37.54277802,23,광진구,화양동
ST-974,592. 건국대학교 학생회관,64,4,127.07763672,37.54191208,68,광진구,화양동
ST-980,593.자양중앙나들목,0,6,127.07803345,37.52845383,6,광진구,자양2동
ST-967,594. 중랑물재생센터(서울새활용플라자),50,1,127.05805969,37.55830383,51,성동구,용답동
ST-260,600. 휘경2동 주민센터,5,0,127.06867981,37.58991241,5,동대문구,휘경2동
ST-261,601. 용신동주민센터,7,3,127.03736115,37.57594681,10,동대문구,용신동
ST-262,602. 장안동 사거리,15,7,127.07138824,37.57217407,22,동대문구,장안1동
ST-265,605. 신설동역8번출구,2,1,127.02649689,37.57419968,3,동대문구,용신동
ST-266,606. 휘경공고앞,24,2,127.07028961,37.58462524,26,동대문구,휘경2동
ST-267,607. 신이문역 2번출구,8,0,127.06786346,37.60271072,8,동대문구,이문1동
ST-268,608. 전농삼성아파트,0,3,127.05534363,37.58131027,3,동대문구,전농2동
ST-269,609. 제기2교,2,0,127.03738403,37.58774567,2,동대문구,청량리동
ST-270,610. 동대문중 교차로,1,0,127.05216217,37.57308578,1,동대문구,답십리1동
ST-271,612. 시립동부병원 앞 사거리,14,7,127.03081512,37.57366562,21,동대문구,용신동
ST-272,613. 신설동역 10번출구 앞,3,1,127.02346802,37.57527161,4,동대문구,용신동
ST-273,614. 용두동 사거리,1,6,127.03101349,37.57768631,7,동대문구,용신동
ST-274,615. 용두동 래미안허브리츠아파트 앞,1,7,127.03511047,37.57638168,8,동대문구,용신동
ST-275,616. 서울시립대 정문 앞 A,2,2,127.05436707,37.58256149,4,동대문구,전농2동
ST-276,617. 청솔우성아파트 앞,1,4,127.05769348,37.57420349,5,동대문구,답십리2동
ST-389,621. 전농초등학교 건너편,0,0,127.05353546,37.57489014,0,동대문구,전농1동
ST-390,622. 전농사거리 교통섬,1,9,127.05783081,37.57779312,10,동대문구,전농2동
ST-391,623. 서울시립대 정문 앞 B,0,0,127.0538559,37.58369827,0,동대문구,전농2동
ST-392,624. 전농동 동아아파트 앞,23,6,127.04589081,37.57418823,29,동대문구,전농1동
ST-394,626. 군자교 서측 녹지대,1,5,127.07096863,37.56115341,6,동대문구,장안1동
ST-395,627. 장안동삼거리 교통섬,15,1,127.07190704,37.57863235,16,동대문구,장안2동
ST-396,628. 휘봉고등학교 앞,20,3,127.06754303,37.58681488,23,동대문구,휘경2동
ST-397,630. 동대문구 보건소,1,2,127.04030609,37.57485199,3,동대문구,용신동
ST-398,631. 답십리역 1번출구,10,7,127.05127716,37.5681839,17,동대문구,답십리1동
ST-400,633. 청량리 기업은행 앞,10,2,127.04482269,37.58040619,12,동대문구,청량리동
ST-401,634. 외국어대 정문 앞,12,0,127.05982971,37.59601974,12,동대문구,이문2동
ST-402,635. 시조사 앞,9,3,127.05277252,37.58751678,12,동대문구,회기동
ST-403,636. 세종대왕기념관 교차로,8,4,127.04258728,37.59090042,12,동대문구,청량리동
ST-404,637. KAIST 경영대학 앞,3,0,127.04579163,37.59161377,3,동대문구,청량리동
ST-405,638. 서울시립대 정보기술관,18,2,127.06097412,37.58300781,20,동대문구,전농2동
ST-406,639. 서울시립대 후문,4,0,127.06027222,37.58504486,4,동대문구,전농2동
ST-407,640. 동대문경찰서 교차로,19,8,127.04460144,37.58255005,27,동대문구,청량리동
ST-408,641. 용두역 4번출구,13,3,127.03853607,37.57375336,16,동대문구,용신동
ST-409,642. 신답역 사거리,1,0,127.0484314,37.57035446,1,동대문구,답십리1동
ST-410,643. 동대문구민체육센터 (육교아래),0,4,127.07429504,37.56697083,4,동대문구,장안1동
ST-1298,646. 장한평역 1번출구,24,0,127.06450653,37.56196594,24,동대문구,장안1동
ST-1300,648. 장안동위더스빌옆,9,2,127.06242371,37.56669998,11,동대문구,장안1동
ST-1302,650. 중랑교사거리,1,3,127.06774139,37.59153366,4,동대문구,휘경2동
ST-1447,652. 답십리 래미안엘파인아파트 입구,4,2,127.06594086,37.57653046,6,동대문구,전농2동
ST-1449,654. 전농동 텃골공원,0,0,127.05210876,37.57762146,0,동대문구,전농1동
ST-1628,656. 영휘원 교차로,1,8,127.0431366,37.58723831,9,동대문구,청량리동
ST-1629,657. 동대문롯데캐슬아파트 앞,1,3,127.04847717,37.57573318,4,동대문구,전농1동
ST-1631,659. 제기동역 1번출구,0,0,127.03338623,37.57835007,0,동대문구,제기동
ST-1632,660. 동의보감타워,1,1,127.03762817,37.57799911,2,동대문구,용신동
ST-1625,661. 경희대학교 청운관,24,0,127.05197144,37.59460068,24,동대문구,회기동
ST-1671,663. 외대앞역 3번출구,21,1,127.06302643,37.59489059,22,동대문구,휘경1동
ST-1758,664. 서울시립대 건설공학관,11,0,127.05793762,37.58412933,11,동대문구,전농2동
ST-2265,665.이문동 쌍용아파트 정문,6,4,127.06864166,37.59960556,10,동대문구,이문1동
ST-2266,666.이문대성유니드아파트 앞,8,2,127.0708313,37.60362244,10,동대문구,이문1동
ST-2267,667.청량차도 육교 밑,0,0,127.04688263,37.58670807,0,동대문구,청량리동
ST-2268,668.서울축산농협(장안지점),14,2,127.06871796,37.56787109,16,동대문구,장안1동
ST-2269,669.청계한신휴플러스앞 삼거리,0,7,127.04460907,37.57214737,7,동대문구,답십리1동
ST-2270,670.삼육서울병원 버스정류장,25,10,127.061409,37.58968735,35,동대문구,휘경2동
ST-2271,671.대광빌딩,6,2,127.02337646,37.57734299,8,동대문구,용신동
ST-2272,672.대광고등학교,15,0,127.02402496,37.57875061,15,동대문구,용신동
ST-2273,673.안암골벽산아파트(후문),1,0,127.03103638,37.58407974,1,성북구,안암동
ST-2274,674.고대앞사거리 교통섬,7,1,127.03314209,37.58655167,8,동대문구,안암동
ST-2276,676.FITI시험연구원 앞,6,5,127.03547668,37.58143234,11,동대문구,제기동
ST-2279,679.전농SK아파트 앞,0,1,127.06168365,37.57787704,1,동대문구,전농2동
ST-2280,680.꿈마루어린이도서관 앞,42,9,127.05741119,37.59238434,51,동대문구,이문2동
ST-2281,681.서울특별시 동부교육지원청(육교),1,1,127.0563736,37.5798378,2,동대문구,전농2동
ST-309,701. 목동사거리 부근,0,2,126.86392975,37.53280258,2,양천구,목4동
ST-310,702. 목4동주민센터 옆,30,2,126.86872864,37.53254318,32,양천구,목4동
ST-311,703. 오목교역 7번출구 앞,42,0,126.87524414,37.52362823,42,양천구,목1동
ST-312,704. 남부법원검찰청 교차로,32,0,126.86490631,37.52325439,32,양천구,신정4동
ST-313,706. 신정네거리역,28,0,126.85175323,37.5218811,28,양천구,신월2동
ST-315,708. 서울출입국관리사무소 앞,24,0,126.8699646,37.51897049,24,양천구,신정2동
ST-316,709. 신정3동 현장민원실 앞,10,3,126.84156036,37.51158524,13,양천구,신정3동
ST-317,710. 금옥여고보도육교,21,0,126.84416962,37.50971222,21,양천구,신정3동
ST-318,711. 신일해피트리아파트 앞,26,0,126.84848785,37.51705933,26,양천구,신정3동
ST-319,712. 강월초교입구 사거리,14,1,126.83831787,37.51699829,15,양천구,신월7동
ST-320,713. 양서중학교 옆,3,1,126.82995605,37.53304672,4,양천구,신월3동
ST-321,714. 한국SGI 양천문화회관 앞,25,1,126.83080292,37.532547,26,양천구,신월1동
ST-428,716.신정6동 주민센터 인근,5,0,126.86431885,37.51731873,5,양천구,신정6동
ST-431,719. 홍익병원앞 교차로,19,1,126.86425781,37.5303688,20,양천구,목4동
ST-432,720. 서울강월초등학교 앞,14,1,126.8348999,37.5161972,15,양천구,신월7동
ST-993,722. 경서농협 버스정류장(우리은행신정동지점방향),10,3,126.85738373,37.52151108,13,양천구,신정1동
ST-994,723. SBS방송국,53,0,126.87274933,37.52916336,53,양천구,목1동
ST-995,724. 계남공원 입구 주출입구 좌측,4,1,126.85732269,37.51059723,5,양천구,신정3동
ST-996,725. 양강중학교앞 교차로,0,0,126.85054779,37.52433395,0,양천구,신월2동
ST-997,726. 목동3단지 시내버스정류장,36,7,126.86959839,37.5343895,43,양천구,목5동
ST-1000,729. 서부식자재마트 건너편,12,1,126.8667984,37.51037979,13,양천구,신정7동
ST-1002,731. 서울시 도로환경관리센터,33,0,126.87654114,37.5298996,33,양천구,목1동
ST-1003,732. 신월중학교,0,0,126.82830048,37.53955078,0,양천구,신월5동
ST-1004,733. 신정이펜하우스314동,0,0,126.83100128,37.51409912,0,양천구,신정3동
ST-1005,734. 신트리공원 입구,54,1,126.85605621,37.51395035,55,양천구,신정1동
ST-1006,735. 영도초등학교,4,2,126.87151337,37.53637695,6,양천구,목5동
ST-1007,736. 오솔길공원,28,3,126.83670044,37.52219009,31,양천구,신월7동
ST-1008,737. 장수공원,6,2,126.84947968,37.52256012,8,양천구,신정3동
ST-1010,739. 신월사거리,19,3,126.82779694,37.53620148,22,양천구,신월5동
ST-1011,740. 으뜸공원,52,2,126.83171082,37.53636932,54,양천구,신월5동
ST-1012,741. 화곡로 입구 교차로,1,0,126.82540131,37.53952026,1,양천구,신월3동
ST-1013,742. 등촌역 5번 출구 뒤,1,0,126.86457825,37.55073166,1,양천구,목3동
ST-1014,743. 현대6차아파트 101동 옆,31,0,126.84268188,37.50889969,31,양천구,신정3동
ST-1015,744. 신목동역 2번 출구,55,1,126.88254547,37.54384232,56,양천구,목5동
ST-1016,745. 강서초등학교,51,0,126.83969879,37.52228165,51,양천구,신월4동
ST-1017,746. 목동2단지 상가,1,0,126.87774658,37.53650284,1,양천구,목5동
ST-1018,747. 목동3단지 상가,1,0,126.8756485,37.53458023,1,양천구,목5동
ST-1019,748. 목동운동장,37,2,126.87930298,37.53025055,39,양천구,목1동
ST-1350,749. 이대목동병원보도육교,35,0,126.88661194,37.53722763,35,양천구,목5동
ST-1398,750. 연의근린공원 건너편,0,5,126.83562469,37.51215744,5,양천구,신정3동
ST-1400,752. 성원2차 아파트,1,0,126.86330414,37.54218292,1,양천구,목3동
ST-1495,754. 목동1단지아파트 118동 앞,2,0,126.87667847,37.54114151,2,양천구,목2동
ST-1496,755. 목동1단지아파트 상가 앞,21,0,126.88140869,37.5378685,21,양천구,목5동
ST-1497,756. 목동주차장,14,0,126.8761673,37.52667999,14,양천구,목1동
ST-1498,757. 신정이펜하우스 1단지아파트 입구 사거리,11,2,126.82874298,37.51427841,13,양천구,신정3동
ST-1499,758. 한사랑교회 앞,18,3,126.85919952,37.51472092,21,양천구,신정7동
ST-1500,759. 보아스아파트 앞,70,2,126.83860016,37.52407074,72,양천구,신월4동
ST-1501,760. 잣절보도육교 아래,3,1,126.84429932,37.50682068,4,양천구,신정3동
ST-1503,762. 오목로 무중력지대 앞,12,1,126.87766266,37.52474213,13,양천구,목1동
ST-1504,763. 목동11단지 아파트,10,0,126.85916138,37.51065826,10,양천구,신정7동
ST-1731,765. 오목교역 3번출구,22,0,126.87548065,37.52477646,22,양천구,목1동
ST-1736,766. 신목동역 3번출구,10,2,126.883461,37.54394913,12,양천구,목5동
ST-1993,767.신정숲속마을아파트,10,0,126.83631134,37.50574493,10,양천구,신정3동
ST-1994,768.목동5단지아파트 501동,28,1,126.88158417,37.53566742,29,양천구,목5동
ST-1995,769.CBS방송국 앞,75,0,126.87467194,37.52785492,75,양천구,목1동
ST-1996,770.목동역5번출구 교통정보센터 앞,67,0,126.86486816,37.52571487,67,양천구,목1동
ST-1997,771.목동아파트 703동 앞,21,0,126.87016296,37.52820587,21,양천구,목1동
ST-2000,774.등촌역 4번 출구 ,12,0,126.86721802,37.54950714,12,양천구,목3동
ST-2001,775.세종그랑시아 앞(102동),0,0,126.86383057,37.53837585,0,양천구,목3동
ST-2002,776.목마공원,19,1,126.88568115,37.53874207,20,양천구,목5동
ST-2003,777.신월6차보람아파트 앞,14,0,126.83477783,37.53012848,14,양천구,신월1동
ST-2005,779. 신정1동 주민센터 앞,39,2,126.85388184,37.51854324,41,양천구,신정1동
ST-2006,780.신정교 하부,25,4,126.8776474,37.5173378,29,양천구,신정2동
ST-2007,781.신정보도육교 아래,8,1,126.8765564,37.51759338,9,양천구,신정2동
ST-2008,782.서남병원 후문,14,0,126.83274078,37.51167297,14,양천구,신정3동
ST-2011,"785.양천구청, 보건소 사잇길",42,0,126.86632538,37.51747513,42,양천구,신정6동
ST-2012,786.목동아파트 8단지 상가동 앞,0,0,126.86830139,37.52007294,0,양천구,신정6동
ST-2013,787.양천아파트 입구,11,0,126.86264801,37.50790405,11,양천구,신정7동
ST-2014,788.양천구청역 2번출구 옆,27,1,126.86528015,37.51228714,28,양천구,신정7동
ST-2016,791.현대하이페리온,21,0,126.86978912,37.52490616,21,양천구,목1동
ST-2017,792.목동트라팰리스 웨스턴에비뉴,36,1,126.8709259,37.52537155,37,양천구,목1동
ST-2039,793.목동5단지아파트 534동,11,2,126.87789917,37.53302002,13,양천구,목5동
ST-2395,794.양천문화회관,1,1,126.86296082,37.51686478,2,양천구,신정6동
ST-2396,795.양천 해누리타운,14,0,126.86411285,37.51584244,14,양천구,신정6동
ST-2397,796.목동아파트 14단지 B상가 앞,38,1,126.87194061,37.5146637,39,양천구,신정6동
ST-2398,797.목동아파트 1422동 1434동 사잇길,42,3,126.87248993,37.51515579,45,양천구,신정6동
ST-322,800. 목월공원 앞,4,4,126.95474243,37.53243256,8,용산구,원효로2가
ST-324,802. 한강진역 2번 출구 앞,0,0,127.00221252,37.54115295,0,용산구,한남동
ST-325,803. 한남초교 앞 보도육교,0,0,127.00409698,37.53813934,0,용산구,한남동
ST-326,805. 문배어린이공원 앞,1,4,126.97000122,37.53675842,5,용산구,원효로1가
ST-327,806. 전자랜드 본관 앞,5,5,126.96073151,37.5330658,10,용산구,한강로동
ST-328,807. 서울역 12번 출구 앞,5,1,126.97268677,37.55227661,6,용산구,남영동
ST-329,808. 서빙고동 금호맨션 앞,9,0,126.98973846,37.520504,9,용산구,서빙고동
ST-330,809. 한남 유수지 복개주차장,4,0,127.00743866,37.53016663,4,용산구,한남동
ST-331,810. 이태원지하보도,0,0,126.98664856,37.53841019,0,용산구,용산2가동
ST-332,811. 녹사평역1번출구,3,2,126.98538208,37.53507996,5,용산구,용산2가동
ST-333,812. 용산전쟁기념관,6,0,126.97766113,37.53483963,6,용산구,남영동
ST-334,813. 삼각지역 3번출구,7,8,126.97227478,37.53351212,15,용산구,한강로동
ST-335,815. LIG강촌아파트 103동앞,19,10,126.97879791,37.51850891,29,용산구,이촌1동
ST-435,816. 신용산역 6번출구 앞,10,1,126.96848297,37.53014755,11,용산구,한강로동
ST-436,817. 삼각지역 4번출구 앞,1,0,126.97173309,37.53345108,1,용산구,한강로동
ST-437,818. 숙명여대 입구 교차로,0,3,126.96938324,37.54489517,3,용산구,청파동
ST-438,819. 선린인터넷 고등학교,0,0,126.97050476,37.54165268,0,용산구,청파동
ST-439,820. 청파동입구 교차로,1,0,126.97194672,37.54902649,1,용산구,남영동
ST-440,822. 이촌1동 마을공원,0,0,126.96618652,37.52202606,0,용산구,이촌1동
ST-441,823. 효창동주민센터 앞,0,0,126.96195984,37.54232025,0,용산구,청파동
ST-442,825. 서빙고동 주민센터 앞,4,0,126.9942627,37.52033615,4,용산구,서빙고동
ST-946,826. 서울역 서부교차로2,1,5,126.96864319,37.55536652,6,용산구,청파동
ST-1324,827. 국군복지단,4,0,126.97966003,37.54188538,4,용산구,용산2가동
ST-1325,828. 숙대입구역 8번,6,3,126.97200012,37.54407883,9,용산구,남영동
ST-1326,829. 한강대교 북단 교차로,6,9,126.96169281,37.52293015,15,용산구,한강로동
ST-1327,830. 강변삼성스위트아파트 앞,0,1,126.94857025,37.53442383,1,용산구,원효로2가
ST-1328,831. 이태원관광특구입구A(녹사평역쪽),2,1,126.98856354,37.53427887,3,용산구,이태원1동
ST-1339,832. 이촌1동 주민센터 뒤,0,3,126.97346497,37.5212822,3,용산구,이촌1동
ST-1341,834. 효창공원앞역 3번출구 뒤,0,0,126.96138,37.53900909,0,용산구,용문동
ST-1342,835. 남영역 건너편,0,5,126.97154236,37.54198074,5,용산구,남영동
ST-1343,836. 현대자동차서비스 앞,5,6,126.95149994,37.53142166,11,용산구,원효로2가
ST-1344,837. 한남나들목 입구,12,0,127.00662231,37.52898788,12,용산구,한남동
ST-1376,838. 숙대입구역 4번출구,1,5,126.97238922,37.5444603,6,용산구,남영동
ST-1441,839. 보광동 삼성리버빌아파트 앞,11,0,127.00144958,37.5240097,11,용산구,보광동
ST-1442,840. 용산 파크타워 앞,0,1,126.97026825,37.52365112,1,용산구,한강로동
ST-1443,841. 신용산역 1번 출구,41,1,126.96887207,37.52960968,42,용산구,한강로동
ST-1445,843. 이태원관광특구B(용산구청쪽),0,6,126.98867035,37.53379822,6,용산구,이태원1동
ST-1446,844. 이촌2동 동원베네스트 아파트 앞,0,2,126.95516205,37.5271492,2,용산구,한강로동
ST-1615,845. 용산 선인상가,19,6,126.96437836,37.53269958,25,용산구,한강로동
ST-1721,846. 용산중학교,13,1,126.9809494,37.54650116,14,용산구,용산2가동
ST-2172,848. 삼각지12번 출구,3,0,126.97562408,37.53488922,3,용산구,남영동
ST-2173,849. 삼각지 자이아파트,1,0,126.97341919,37.53607941,1,용산구,한강로동
ST-2174,850. KCC용산월츠타워 ,2,1,126.96892548,37.53739929,3,용산구,원효로1가
ST-2175,851.효창 푸르지오 앞,0,0,126.95811462,37.54047775,0,용산구,효창동
ST-2176,852. 청암자이아파트 앞,1,5,126.9471817,37.53452682,6,용산구,원효로2가
ST-2177,853.용산역 맞은편,27,0,126.9658432,37.52848816,27,용산구,한강로동
ST-2178,854.HID 유족동지회 앞,3,0,127.0014801,37.53850937,3,용산구,한남동
ST-2179,855.이촌역5번출구 앞,0,0,126.97277069,37.52272415,0,용산구,이촌1동
ST-2181,857. 현대 안성타워,13,0,126.99797058,37.53508759,13,용산구,이태원1동
ST-2182,858.녹사평역3번 출구,1,3,126.9868927,37.53440857,4,용산구,용산2가동
ST-2183,859.남산공원 야외식물원 앞,3,1,126.99586487,37.54188538,4,용산구,이태원2동
ST-2184,860.LG한강 자이아파트 앞,2,1,126.9708252,37.52074814,3,용산구,이촌1동
ST-2187,863.이촌역2번 출구,9,1,126.977005,37.52177048,10,용산구,한강로동
ST-2188,864.순천향대학병원(한남오거리),5,2,127.00600433,37.53514099,7,용산구,한남동
ST-2189,865.하얏트호텔 앞,0,0,126.99784851,37.54079437,0,용산구,이태원2동
ST-2190,866.브라운스톤 남산아파트,0,0,126.97686005,37.551548,0,용산구,남영동
ST-2191,867.서빙고역 광장(1번출구),1,0,126.98923492,37.51990891,1,용산구,서빙고동
ST-2239,869.노들섬 동측 앞,3,0,126.95914459,37.51729584,3,용산구,이촌2동
ST-2240,870.노들섬 서측 앞,3,0,126.95829773,37.51731873,3,용산구,이촌2동
ST-448,900. 은평예술회관,16,9,126.92769623,37.60394287,25,은평구,녹번동
ST-450,902. 진관동 은빛초등학교,0,0,126.91822052,37.64310837,0,은평구,진관동
ST-451,903. 은평뉴타운 아이파크,19,0,126.92739105,37.64586639,19,은평구,진관동
ST-452,904. 은평뉴타운 푸르지오,15,0,126.93070221,37.64867401,15,은평구,진관동
ST-453,905. 구파발역 2번출구,22,1,126.91899872,37.63623428,23,은평구,진관동
ST-454,906. 연신내역 5번출구,13,2,126.91957855,37.61721039,15,은평구,대조동
ST-455,907. CJ 드림시티,24,7,126.91686249,37.59949112,31,은평구,응암1동
ST-456,908. 구산역 4번출구,6,3,126.91735077,37.61318588,9,은평구,갈현2동
ST-457,909. 백련산 힐스테이트 3차,10,4,126.92288208,37.58699417,14,은평구,응암2동
ST-459,911. 은평평화공원(역촌역4번출구),1,0,126.92293549,37.60558319,1,은평구,녹번동
ST-460,912. 응암오거리,15,6,126.91694641,37.58966064,21,은평구,응암3동
ST-461,913. 이마트 버스정류장(서부경찰서 방면),5,0,126.92012787,37.60070038,5,은평구,응암1동
ST-462,914. 새절역 2번출구,25,13,126.91365051,37.59079742,38,은평구,신사2동
ST-463,915. 증산역 4번출구,3,1,126.90989685,37.5843811,4,은평구,증산동
ST-464,916. 평생학습관 앞,2,5,126.92132568,37.60784912,7,은평구,대조동
ST-465,917. 녹번역 3번출구,15,0,126.9353714,37.60076141,15,은평구,응암1동
ST-467,919. 서울혁신파크,16,2,126.93331146,37.60702515,18,은평구,녹번동
ST-469,921. 신도고등학교,1,0,126.91902924,37.63001633,1,은평구,진관동
ST-470,922. 연신내역 4번출구,13,0,126.92196655,37.61780167,13,은평구,대조동
ST-471,923. 국민은행 연서지점,2,0,126.92563629,37.62094879,2,은평구,불광1동
ST-472,924. 메뚜기다리,1,0,126.92958069,37.62851715,1,은평구,불광2동
ST-473,925. 불광역 2번출구,4,3,126.93097687,37.60956573,7,은평구,불광1동
ST-475,927. 연신내역 3번출구 인근,12,0,126.9225235,37.61785507,12,은평구,불광1동
ST-476,928. 은평역사한옥박물관,1,0,126.93804169,37.64131546,1,은평구,진관동
ST-478,930. 구 서부경찰서 건너편,1,4,126.92030334,37.60166168,5,은평구,역촌동
ST-479,931. 역촌파출소,4,6,126.91533661,37.60473633,10,은평구,역촌동
ST-480,932. 예일여중,25,1,126.91639709,37.61000443,26,은평구,구산동
ST-481,933. 역촌종합시장 버스정류장(예일여고 방면),3,3,126.91487885,37.61248398,6,은평구,구산동
ST-1020,934. 신사동 성당,1,1,126.9095993,37.59714127,2,은평구,신사1동
ST-1023,937. 상림마을 롯데캐슬2단지 옆,8,0,126.92379761,37.64585114,8,은평구,진관동
ST-1024,938. 금암 문화공원,23,1,126.91845703,37.64468384,24,은평구,진관동
ST-1025,939. 은평구청 교차로,5,1,126.92742157,37.60169983,6,은평구,응암1동
ST-1027,941. 은평뉴타운 도서관,10,0,126.93330383,37.63722229,10,은평구,진관동
ST-1028,942. 상림마을 생태공원,0,0,126.92928314,37.64408112,0,은평구,진관동
ST-1029,943. 은평구청 보건소,27,1,126.9286499,37.60240173,28,은평구,녹번동
ST-1031,945. 기자촌 사거리 A,0,0,126.93234253,37.63414001,0,은평구,진관동
ST-1032,946. 독바위역 ,0,0,126.93288422,37.61843872,0,은평구,불광1동
ST-1033,947. 연신내 선일하이츠빌 정류소,0,0,126.91999054,37.62266922,0,은평구,불광2동
ST-1034,948. 디지털미디어 시티역 4번출구(DMC역),7,2,126.90235138,37.57720184,9,은평구,증산동
ST-1035,949. 연신내역 1번 출구 ,25,1,126.92080688,37.61978149,26,은평구,불광2동
ST-1036,950. 구산역 2번 출구 예일여고 버스정류장,6,1,126.91679382,37.60980225,7,은평구,구산동
ST-1038,952. 서울연신중학교,1,0,126.92524719,37.62265015,1,은평구,불광2동
ST-1039,953. 서울연신초등학교,0,0,126.92881775,37.6257782,0,은평구,불광2동
ST-1329,954. 은평뉴타운구파발9단지,14,5,126.92147827,37.64260864,19,은평구,진관동
ST-1331,956. 응암시장교차로,3,2,126.91801453,37.59441376,5,은평구,응암3동
ST-1479,958. 본 서부병원 버스정류장(은평 세무서 방면),13,12,126.92281342,37.60036087,25,은평구,응암1동
ST-1480,959. 구파발10단지 인근,3,1,126.91455841,37.6436615,4,은평구,진관동
ST-1481,960. 구파발역 환승센터,38,3,126.91945648,37.63825226,41,은평구,진관동
ST-1482,961. 불광역 9번 출구,24,5,126.92980957,37.61096954,29,은평구,불광1동
ST-1483,962. 은평뉴타운 힐데스하임,21,11,126.91890717,37.63925934,32,은평구,진관동
ST-1484,963. 대호프라자아파트,13,0,126.93257904,37.61442947,13,은평구,불광1동
ST-1485,964. 북한산힐스테이트 7차아파트,3,1,126.92512512,37.61654282,4,은평구,불광1동
ST-1486,965. 서울특별시 은평병원,2,0,126.92318726,37.59347916,2,은평구,응암2동
ST-1487,966. 서울혁신파크1,2,1,126.93467712,37.60944748,3,은평구,불광1동
ST-1488,967. 서울혁신파크2,23,2,126.93199921,37.60849762,25,은평구,녹번동
ST-1489,968. 은평뉴타운 상림마을 13단지,0,0,126.92941284,37.64208984,0,은평구,진관동
ST-1490,969. 은평 지웰테라스,1,0,126.93213654,37.64339447,1,은평구,진관동
ST-1674,971. 역촌 센트레빌 아파트,12,0,126.90654755,37.60232925,12,은평구,역촌동
ST-2241,973.제각말푸르지오 5-1단지 아파트,0,0,126.93584442,37.63734818,0,은평구,진관동
ST-2242,974.연신초등학교옆 마을마당,4,0,126.92901611,37.62672043,4,은평구,불광2동
ST-2243,975.백련산 힐스테이트상가앞,12,1,126.92301178,37.59036255,13,은평구,응암2동
ST-2244,976.진관고등학교앞,31,2,126.92410278,37.64350891,33,은평구,진관동
ST-2245,977.신도중학교앞,8,1,126.9315033,37.63310242,9,은평구,진관동
ST-2246,978.녹번 힐스테이트상가앞,1,0,126.93592834,37.60100937,1,은평구,녹번동
ST-2247,979.원풍빌라앞,0,0,126.90608215,37.59186172,0,은평구,신사2동
ST-2250,982. 녹번초등학교(서오릉로),13,0,126.92508698,37.60412598,13,은평구,녹번동
ST-2252,984.상신초등학교앞 버스정류장,0,0,126.91026306,37.59580994,0,은평구,신사1동
ST-2253,985. 은평세무서 버스정류장(은평구청 방면),8,0,126.92638397,37.60119247,8,은평구,응암1동
ST-2257,989. 신응교(가좌로) 앞,4,0,126.91483307,37.59181213,4,은평구,응암3동
ST-2259,991.흥국사 정류장,2,0,126.94200897,37.6567688,2,은평구,진관동
ST-2260,992.북한산입구 정류장,2,0,126.94529724,37.65828705,2,은평구,진관동
ST-2261,993.은평뉴타운 은뜨락아파트앞,4,1,126.91956329,37.63028717,5,은평구,진관동
ST-2262,994.북한산생태공원입구(교통섬),0,0,126.9385376,37.61050797,0,은평구,불광1동
ST-2263,995.은평다목적체육관,6,0,126.92540741,37.63140869,6,은평구,진관동
ST-2264,996.응암역2번출구 국민은행 앞,10,3,126.91572571,37.59996796,13,은평구,역촌동
ST-485,1001. 광진교 남단 사거리(천호공원 방면),17,3,127.12474823,37.54179382,20,강동구,천호2동
ST-486,1002. 해공공원(천호동),1,1,127.12593842,37.5452652,2,강동구,천호2동
ST-487,1003. 해공도서관앞,8,0,127.12548828,37.54395676,8,강동구,천호2동
ST-488,1004. 삼성광나루아파트 버스정류장,16,1,127.1288681,37.55332947,17,강동구,암사1동
ST-490,1006. 롯데캐슬 115동앞,0,0,127.14279938,37.55486679,0,강동구,암사1동
ST-491,1007.암사동 선사유적지,40,1,127.13087463,37.55955887,41,강동구,암사3동
ST-492,1008. 암사역 3번출구(국민은행앞),32,5,127.12708282,37.54935455,37,강동구,천호2동
ST-493,1009. 천호역4번출구(현대백화점),57,0,127.12424469,37.53866577,57,강동구,천호2동
ST-494,1010. 강동세무서,32,2,127.13840485,37.53450775,34,강동구,길동
ST-495,1011. LIGA 아파트 앞,28,8,127.13528442,37.53474426,36,강동구,성내3동
ST-496,1012. 천호역효성해링턴타워 앞,1,0,127.12272644,37.53600693,1,강동구,성내2동
ST-497,1013. 강동구청역 1번 출입구,31,3,127.12098694,37.53071594,34,강동구,성내1동
ST-499,1015. 샛마을 근린공원,0,0,127.14691162,37.55003738,0,강동구,명일1동
ST-500,1016. 해뜨는 주유소옆 리엔파크 109동앞,9,1,127.17118073,37.55939865,10,강동구,강일동
ST-501,1017. 둔촌고교입구 교차로(길동주민센터 방면),61,7,127.14518738,37.53544617,68,강동구,길동
ST-830,1018. 둔촌 주공 GS 맞은편,12,2,127.13542175,37.52458954,14,강동구,둔촌1동
ST-502,1019. 다성이즈빌아파트(호원대 대각선 맞은편),6,0,127.13005829,37.52679443,6,강동구,성내1동
ST-503,1020. 강동경찰서,20,2,127.12680054,37.52825165,22,강동구,성내1동
ST-504,1021. 강일동 리슈빌 빌딩앞,29,0,127.17397308,37.56427383,29,강동구,강일동
ST-505,1022. 길동 사거리(초소앞),8,3,127.13799286,37.53377914,11,강동구,성내3동
ST-1040,1023. 한국종합기술사옥 앞,115,1,127.17470551,37.54998398,116,강동구,상일2동
ST-1041,1024.  강동구청 앞,41,7,127.12315369,37.52929688,48,강동구,성내1동
ST-1042,1025. 상일초등학교,10,0,127.17251587,37.54684067,10,강동구,상일1동
ST-1044,1027. 프라자 아파트 앞,24,3,127.14781952,37.53596115,27,강동구,길동
ST-1045,1028. 포레스 주상복합 빌딩,0,0,127.12277222,37.53310776,0,강동구,성내2동
ST-1046,1029. 성내어울터,2,0,127.12553406,37.53655624,2,강동구,성내2동
ST-1047,1030. 미호 플랜트 앞,1,2,127.12206268,37.52703094,3,강동구,성내1동
ST-1049,1032. 선사고등학교,16,11,127.13626099,37.55672836,27,강동구,암사3동
ST-1050,1033. 고덕동 아남아파트,0,0,127.14476776,37.55793381,0,강동구,고덕1동
ST-1051,1034. 고덕동 래미안 힐스테이트,13,0,127.15078735,37.5618782,13,강동구,고덕1동
ST-1053,1036. 고덕동 주양쇼핑,0,0,127.15331268,37.55199051,0,강동구,명일2동
ST-1054,1037. 강일리버파크 6단지,3,3,127.1776123,37.56256485,6,강동구,강일동
ST-1055,1038. 강일 다솜 어린이 공원,34,0,127.17480469,37.56863785,34,강동구,강일동
ST-1056,1039. 고덕초등학교,6,1,127.16784668,37.56129837,7,강동구,고덕2동
ST-1058,1041. 묘곡초등학교,12,1,127.15332031,37.55916214,13,강동구,고덕1동
ST-1059,1042. 강일리버파크 2~5단지,37,2,127.17700958,37.5685463,39,강동구,강일동
ST-1061,1044. 굽은다리역,21,6,127.14267731,37.54540634,27,강동구,천호1동
ST-1370,1048. 둔촌어린이공원,42,1,127.14237213,37.53099442,43,강동구,둔촌2동
ST-1371,1049. 강일리버파크 10단지,45,5,127.18026733,37.561203,50,강동구,강일동
ST-1420,1050.  둔촌역 3번 출입구,11,2,127.13557434,37.52678299,13,강동구,성내3동
ST-1421,"1051. 강일중,선사고 버스정류장(신암중학교 방면)",19,4,127.13732147,37.55483627,23,강동구,암사1동
ST-1594,1053. 동명근린공원 진입로 (아리수로),20,2,127.16448212,37.56254578,22,강동구,고덕2동
ST-1595,1054. 말우물 어린이 공원,11,5,127.16967773,37.56002808,16,강동구,고덕2동
ST-1597,1056. 강일리버파크 7~11단지,38,1,127.17905426,37.56335449,39,강동구,강일동
ST-1598,1057. 능골근린공원,2,2,127.1737442,37.55580902,4,강동구,상일2동
ST-1623,1058. 고덕숲 아이파크 1,1,0,127.16505432,37.55348206,1,강동구,상일1동
ST-1626,1059. 래미안 강동팰리스(102동),0,0,127.13174438,37.53822708,0,강동구,천호3동
ST-1620,1060. 천일초교 사거리,1,0,127.13267517,37.5446701,1,강동구,천호1동
ST-1621,1061. 천호초교 입구 사거리(일주빌딩),0,0,127.13466644,37.54689789,0,강동구,천호1동
ST-1622,1062. 고덕숲 아이파크 2,0,0,127.16259766,37.5510788,0,강동구,상일1동
ST-1762,1063.강동롯데캐슬퍼스트 아파트(관리동),1,0,127.14273834,37.55666351,1,강동구,암사3동
ST-1763,1064.중앙보훈병원역 1번출구,7,2,127.14764404,37.52779388,9,강동구,둔촌2동
ST-1764,1065.보훈병원 후문옆(더 원커피),3,2,127.1492691,37.53120804,5,강동구,둔촌2동
ST-1765,1066.생태공원앞 교차로(조명탑),4,1,127.15201569,37.5377655,5,강동구,길동
ST-1766,1067.한영중고앞사거리,9,1,127.15605164,37.54903412,10,강동구,상일1동
ST-1767,1068.명일파출소,5,0,127.15622711,37.5536499,5,강동구,상일1동
ST-1831,1070.(시립)고덕평생학습관,12,1,127.15792084,37.55570221,13,강동구,고덕2동
ST-1833,1072.고덕역 5번출구,2,0,127.15372467,37.55486298,2,강동구,명일2동
ST-1834,1073. SSTS 몰 앞,26,1,127.14105225,37.54114532,27,강동구,길동
ST-1835,1074.대명초교입구 사거리,15,1,127.14916229,37.54683685,16,강동구,명일2동
ST-1836,1075.천동초교 삼거리,6,2,127.13718414,37.54136276,8,강동구,천호3동
ST-1837,1076. 천동초교입구사거리 버스정류장(십자성마을 방면),14,0,127.14103699,37.5398941,14,강동구,길동
ST-1838,1077.강동역 1번출구 앞,0,0,127.13246918,37.53627014,0,강동구,천호3동
ST-1839,1078.둔촌사거리,16,1,127.13362122,37.52197647,17,강동구,성내3동
ST-1840,1079.강일동입구교차로,38,4,127.17084503,37.56184387,42,강동구,강일동
ST-1841,1080.엘웨딩,1,0,127.12841797,37.5368309,1,강동구,성내2동
ST-1842,1081.트레빌빌딩,1,0,127.12953186,37.53699875,1,강동구,천호3동
ST-1843,1082.중앙보훈병원역3번출구,3,0,127.1490097,37.52956009,3,강동구,둔촌2동
ST-1844,1083.광문고교사거리(아이파크),6,0,127.15659332,37.56036758,6,강동구,고덕1동
ST-1687,1084. 윤선생빌딩(JYP사옥),53,6,127.1291275,37.5239296,59,강동구,성내3동
ST-1845,1085.래미안 솔베뉴(고덕로),0,0,127.14587402,37.55456924,0,강동구,명일1동
ST-1846,1086.래미안 솔베뉴(구천면로),0,0,127.14545441,37.55059814,0,강동구,명일1동
ST-1848,1088.풍납사거리(강동),5,0,127.11952209,37.52812195,5,강동구,성내1동
ST-1849,1089.고덕 래미안힐스테이트(201동),0,0,127.146698,37.56060028,0,강동구,고덕1동
ST-1850,1090.상일동역 2번출구 앞,20,0,127.16614532,37.5567894,20,강동구,상일1동
ST-507,1101. 상사마을 버스정류장(아라대교방면),24,0,126.79859924,37.58161163,24,강서구,방화2동
ST-508,1102. 방화사거리 마을버스 버스정류장,8,0,126.81180573,37.57364273,8,강서구,방화1동
ST-831,1103. 방화역 4번출구앞,2,0,126.81199646,37.57710648,2,강서구,방화3동
ST-509,1105. 방화근린공원,8,1,126.81265259,37.58162308,9,강서구,방화3동
ST-824,1106. 신방화사거리,0,0,126.81642151,37.57256317,0,강서구,방화1동
ST-510,1108. 공항시장역 2번출구 뒤,0,1,126.81060791,37.56387329,1,강서구,공항동
ST-511,1109. 공항시장역 4번출구,1,0,126.81048584,37.56334686,1,강서구,공항동
ST-828,1110. 공항중학교앞,13,4,126.81624603,37.56220245,17,강서구,공항동
ST-512,1111. 마곡엠밸리6_7단지 마곡중학교,0,0,126.82180023,37.56698227,0,강서구,방화1동
ST-513,1112. 마곡엠밸리4단지 정문,5,1,126.8247757,37.56857681,6,강서구,가양1동
ST-514,1113. 서남환경공원 버스정류장,2,0,126.8223877,37.57312393,2,강서구,가양1동
ST-834,1117. 등촌5단지아파트 버스정류장,17,1,126.84426117,37.55819702,18,강서구,등촌3동
ST-516,1118. 증미역 3번출구뒤(등촌두산위브센티움오피스텔),44,2,126.86145782,37.55746078,46,강서구,가양3동
ST-517,1119. 염창동 한마음아파트 앞,1,1,126.86756134,37.55425262,2,강서구,염창동
ST-518,1120. 대림경동아파트앞,5,0,126.85464478,37.564785,5,강서구,가양2동
ST-519,1121. 가양레포츠센터 앞,33,0,126.86437988,37.55947876,33,강서구,가양3동
ST-520,1122. 황금내근린공원,23,11,126.86416626,37.56192398,34,강서구,염창동
ST-522,1124. 발산역 6번 출구 뒤,7,0,126.8384552,37.55817795,7,강서구,우장산동
ST-835,1125. 명덕고교입구(영종빌딩),4,0,126.83657074,37.55291367,4,강서구,우장산동
ST-523,1126. 우장산역 1번출구옆(우장산아이파크105동앞),4,0,126.83656311,37.54890823,4,강서구,우장산동
ST-524,1127. 화곡역 버스정류장,20,2,126.83854675,37.54098129,22,강서구,화곡1동
ST-829,1128. 화곡역 6번출구,15,0,126.84022522,37.54141235,15,강서구,화곡1동
ST-525,1129. 화곡역 1번 출구 앞,11,1,126.84021759,37.542099,12,강서구,우장산동
ST-526,1130. 화곡본동시장 버스정류장,1,1,126.84262085,37.54275131,2,강서구,화곡본동
ST-528,1132. 등촌역 7번출구,2,5,126.8637085,37.55110931,7,강서구,등촌2동
ST-530,1135. 강서구의회,16,0,126.86254883,37.54653168,16,강서구,등촌2동
ST-531,1136. 등촌2파출소,10,1,126.86199951,37.54478836,11,강서구,등촌2동
ST-532,1137. 등촌2동주민센터,14,1,126.8633728,37.54126358,15,강서구,등촌2동
ST-533,1139. 용문사 버스정류장,0,0,126.86343384,37.53852081,0,강서구,등촌2동
ST-534,1140. 목동사거리 버스정류장,16,0,126.86360931,37.53139877,16,강서구,화곡4동
ST-535,1141. 곰달래 문화복지센터 A,44,0,126.84848022,37.52906036,44,강서구,화곡8동
ST-536,1145. 곰달래 문화복지센터 B,27,1,126.8480835,37.52891922,28,강서구,화곡1동
ST-538,1148. 볏골공원,13,4,126.84477997,37.54146957,17,강서구,화곡본동
ST-975,1149. 신방화역환승주차장,2,1,126.81827545,37.56728363,3,강서구,방화1동
ST-1062,1150. 송정역 1번출구,0,0,126.81069946,37.56153107,0,강서구,공항동
ST-1063,1151. 마곡역1번출구,12,0,126.82414246,37.56020737,12,강서구,공항동
ST-1064,1152. 마곡역교차로,93,0,126.82652283,37.55831146,93,강서구,발산1동
ST-1065,"1153. 발산역 1번, 9번 인근 대여소",5,2,126.83717346,37.55894852,7,강서구,가양1동
ST-1067,1155. 기쁜우리복지관,19,1,126.84841919,37.56925964,20,강서구,가양2동
ST-1069,1157. 강서구청,1,0,126.84976959,37.55065918,1,강서구,화곡6동
ST-1249,1158. 가양역 8번출구,18,2,126.85481262,37.56103516,20,강서구,가양2동
ST-1250,1159. 서서울모터리움 앞,49,5,126.84659576,37.56585312,54,강서구,가양1동
ST-1251,1160. 양천향교역 7번출구앞,2,0,126.84089661,37.56768036,2,강서구,등촌3동
ST-1252,1161. 강서면허시험장 앞,6,0,126.819664,37.54969406,6,강서구,발산1동
ST-1253,1162. 공항초등학교건너편,0,0,126.82047272,37.56267929,0,강서구,공항동
ST-1254,1163. 방화동강서기동대앞,21,3,126.82008362,37.57049942,24,강서구,방화1동
ST-1338,1165. 마곡중학교 후문,8,3,126.82164764,37.56844711,11,강서구,방화1동
ST-1351,1166. 강서구립등빛도서관,3,0,126.84246063,37.56256866,3,강서구,등촌3동
ST-1352,1167. 마곡수명산파크3단지 교차로,4,1,126.8258667,37.55350876,5,강서구,발산1동
ST-1402,1168. 마곡엠밸리10단지 앞,0,0,126.8187561,37.56029129,0,강서구,공항동
ST-1506,1169. 염창역 1번 출구,14,2,126.87448883,37.54719925,16,강서구,염창동
ST-1507,1170. 강서구보건소,13,0,126.8687973,37.54917908,13,강서구,염창동
ST-1508,1171. 염창동 새마을금고 건너편,6,1,126.87316132,37.55004883,7,강서구,염창동
ST-1509,1172. 가양3동 주민센터,16,4,126.86058044,37.56124878,20,강서구,가양3동
ST-1510,1173. 강서구청사거리(SH타워),15,0,126.85307312,37.55673599,15,강서구,등촌1동
ST-1511,1174. 강서구청사거리(부민병원),2,1,126.85116577,37.55661392,3,강서구,등촌3동
ST-1514,1177. 수명중․고교,33,3,126.82367706,37.55010986,36,강서구,발산1동
ST-1515,1178. 개화산역 2번 출구,19,1,126.8061676,37.57247162,20,강서구,방화2동
ST-1517,1180. 마곡엠밸리 15단지(1502동) 건너편,26,3,126.82971954,37.55746841,29,강서구,발산1동
ST-1518,1181. 농수산식품공사 (강서지사),30,1,126.8184967,37.55104446,31,강서구,발산1동
ST-1519,1182. KBS 스포츠월드,10,1,126.84880829,37.55687714,11,강서구,등촌3동
ST-1520,1183. KC 대학교,17,3,126.85340118,37.54832077,20,강서구,화곡6동
ST-1645,1184. 마곡13단지,8,1,126.815979,37.55644989,9,강서구,공항동
ST-1646,1185. 등촌9단지,31,4,126.84947205,37.56290054,35,강서구,등촌3동
ST-1647,1186. 송정중학교,24,1,126.81609344,37.55472946,25,강서구,공항동
ST-1676,1187. 강서수산물도매시장,15,3,126.818367,37.55302048,18,강서구,발산1동
ST-1708,1188. 롯데중앙연구소,14,0,126.82833862,37.57138062,14,강서구,가양1동
ST-1709,1190. 마곡역 교차로(2번출구),11,0,126.82665253,37.5605011,11,강서구,공항동
ST-1689,"1191. 마곡역 버스정류장(마곡나루역1번출구, 웰튼병원 방면)",4,0,126.8271637,37.5602417,4,강서구,공항동
ST-1710,1192. 마곡수명산파크 209동 건너편,7,3,126.82689667,37.55545044,10,강서구,발산1동
ST-1688,1193. 마곡센트럴타워 1차,71,0,126.83207703,37.55947113,71,강서구,가양1동
ST-1712,1195. 코오롱One&Only타워,80,2,126.83431244,37.56412888,82,강서구,가양1동
ST-1713,1196. 서울식물원(문화센터) 건너편,11,0,126.83583069,37.56824112,11,강서구,가양1동
ST-1714,1197. 엠펠리체 호텔 건너편,11,1,126.8358078,37.5602417,12,강서구,가양1동
ST-1715,1198. LG 사이언스파크,25,0,126.82743835,37.56254959,25,강서구,가양1동
ST-1694,1199. 우장산역 3번출구,8,0,126.83612823,37.54782104,8,강서구,발산1동
ST-1695,1200. 개화광역환승센터,19,1,126.79897308,37.57844925,20,강서구,방화2동
ST-838,1201. 가락시장역 3번 출구,16,4,127.11854553,37.49317932,20,송파구,가락본동
ST-737,1203. 밀리아나2빌딩 앞,23,2,127.12062073,37.49372864,25,송파구,가락본동
ST-930,1204. 거여역 3번출구,20,8,127.14472961,37.49334335,28,송파구,거여2동
ST-539,1205. 종합운동장역 4번출구,19,6,127.07137299,37.51042938,25,송파구,잠실7동
ST-540,1206. 9호선종합운동장역 9번출구,13,4,127.07823944,37.51128006,17,송파구,잠실7동
ST-738,1207. 마천중앙시장,8,2,127.15250397,37.49975586,10,송파구,마천2동
ST-541,1208. 풍납현대아파트쉼터,5,1,127.1199646,37.52974701,6,송파구,풍납2동
ST-542,1209. 잠실나루역 (2번 출구 쪽),5,0,127.10420227,37.52045059,5,송파구,행정동
ST-891,1210. 롯데월드타워(잠실역2번출구 쪽),103,8,127.10095978,37.51312637,111,송파구,잠실6동
ST-839,1212. 송파역 2번 출구앞,6,8,127.11286926,37.49941254,14,송파구,송파2동
ST-543,1213. 백토공원 앞,7,0,127.13321686,37.50831985,7,송파구,가락본동
ST-740,1214. 오금역 7번 출구 인근,10,0,127.1276474,37.50259399,10,송파구,가락본동
ST-544,1215. 올림픽공원역 1번출구 앞,3,2,127.13153839,37.51657104,5,송파구,오륜동
ST-545,1217. 송파파인타운 7단지,0,2,127.12979889,37.47930527,2,송파구,장지동
ST-892,1218. 방이역 4번출구,5,0,127.12583923,37.50896835,5,송파구,방이1동
ST-546,1220. 잠실근린공원,1,1,127.08403778,37.50569153,2,송파구,잠실본동
ST-933,1221. 삼전역 4번출구,3,0,127.08753204,37.50419998,3,송파구,잠실본동
ST-547,1222. 잠실새내역 5번 출구 뒤,7,1,127.08505249,37.51198196,8,송파구,잠실2동
ST-548,1224. 아시아지하보도 2번 출구,0,3,127.07893372,37.51216888,3,송파구,잠실2동
ST-894,1226. 잠실4동 주민센터 옆,0,0,127.11236572,37.52007675,0,송파구,행정동
ST-895,1227. 거여역 8번출구 뒤,10,3,127.14382172,37.49312592,13,송파구,거여1동
ST-896,1228. 마천사거리 ,6,0,127.14620209,37.49769974,6,송파구,거여1동
ST-549,1229. 송파체육문화회관 앞,34,7,127.14312744,37.49068832,41,송파구,거여1동
ST-897,1230. 송파중학교 정문,0,0,127.13059235,37.49567032,0,송파구,가락2동
ST-840,1231. 잠실역 6번출구,4,3,127.09902954,37.51408768,7,송파구,잠실3동
ST-550,1232. 잠실주공 521동 건너편,15,2,127.09568787,37.51184082,17,송파구,잠실3동
ST-551,1233. 잠실3거리(갤러리아팰리스),6,1,127.09336853,37.51050949,7,송파구,잠실3동
ST-553,1235. 잠실트리지움310동 옆,4,0,127.08716583,37.50887299,4,송파구,잠실3동
ST-899,1239. 문정 법조단지3,3,0,127.11801147,37.48084259,3,송파구,문정2동
ST-900,1240. 문정 법조단지4,0,0,127.11856842,37.48057556,0,송파구,문정2동
ST-901,1241. 문정 법조단지5,0,2,127.11979675,37.48123932,2,송파구,문정2동
ST-902,1242. 문정 법조단지6,1,3,127.11916351,37.48163223,4,송파구,문정2동
ST-903,1243. 문정 법조단지7,49,2,127.12016296,37.4845314,51,송파구,문정2동
ST-904,1244. 문정 법조단지8,8,3,127.12212372,37.48153687,11,송파구,문정2동
ST-905,1245. 문정 법조단지9,6,0,127.12532806,37.47946548,6,송파구,문정2동
ST-906,1246. 문정 법조단지10,19,3,127.12632751,37.47750854,22,송파구,문정2동
ST-907,1247. 문정 법조단지11,4,1,127.12351227,37.4788208,5,송파구,문정2동
ST-908,1248. 방이초등학교,1,0,127.12167358,37.51396179,1,송파구,방이1동
ST-981,1250.문정2동 주민센터,12,4,127.11083984,37.48987198,16,송파구,문정2동
ST-1070,1251. 석촌역 2번출구,1,0,127.10774994,37.50593185,1,송파구,송파1동
ST-1072,1253. 오금역 3번 출구 뒤,2,1,127.12818146,37.50165176,3,송파구,가락2동
ST-1075,1256. 문정현대아파트 교차로,2,0,127.12580872,37.49113083,2,송파구,가락본동
ST-1076,1257. 가락시장역 사거리,2,2,127.11775208,37.49209976,4,송파구,문정2동
ST-1077,1258. 가락미륭아파트 앞,0,1,127.1289978,37.49319839,1,송파구,가락2동
ST-1078,1259. 방이역 1번출구,28,2,127.12659454,37.50898361,30,송파구,오금동
ST-1079,1260. 방이동 한양3차아파트 옆,0,0,127.12139893,37.50630188,0,송파구,방이1동
ST-1081,1262. 송파여성문화회관 앞,3,1,127.10971832,37.50580215,4,송파구,송파1동
ST-1082,1263. 장지공영차고지,12,7,127.1370163,37.48054123,19,송파구,위례동
ST-1083,1264. 천호역 10번 출구 앞,13,0,127.12280273,37.53858185,13,송파구,풍납1동
ST-1085,1266. 문정동 글샘 공원,18,1,127.12000275,37.47880936,19,송파구,문정2동
ST-1086,1267. 올림픽공원 남2문 앞,3,0,127.12306976,37.51424026,3,송파구,오륜동
ST-1087,1268. 몽촌토성역 1번출구 옆,3,0,127.11419678,37.51728821,3,송파구,오륜동
ST-1088,1269. 리센츠아파트 ,10,0,127.09121704,37.51194382,10,송파구,잠실2동
ST-1089,1271. 송파도서관,5,1,127.13539124,37.49998474,6,송파구,오금동
ST-1092,1274. 영파여고 앞,13,0,127.12104797,37.53284836,13,송파구,풍납2동
ST-1367,1275. 거여초등학교 옆,28,1,127.13936615,37.50458908,29,송파구,오금동
ST-1408,1277. 성내7교,12,1,127.1364212,37.50562668,13,송파구,오금동
ST-1409,1278. 송파구청 교차로,17,0,127.10681915,37.51579666,17,송파구,방이2동
ST-1410,1279. 마천금호어울림 1차아파트 건너편,11,0,127.15467834,37.49751663,11,송파구,마천1동
ST-1411,1280. 송파파크데일 2단지입구 앞 주차장,3,0,127.15717316,37.49565887,3,송파구,마천1동
ST-1413,1282. 송파소방서 맞은편(성내4교),18,1,127.14147949,37.49987411,19,송파구,거여1동
ST-1414,1283. 오금공원 사거리,1,0,127.13169098,37.50541306,1,송파구,오금동
ST-1416,1285. 위례별 유치원 뒤,7,2,127.14459229,37.4774704,9,송파구,위례동
ST-1417,1286. 위례중앙푸르지오 1단지 앞,2,0,127.14067078,37.47437668,2,송파구,위례동
ST-1418,1287. 위례아이파크 101동 맞은편,4,2,127.14151001,37.47746658,6,송파구,위례동
ST-1419,1288. 문정중교 사거리,1,0,127.13108826,37.48799896,1,송파구,장지동
ST-1422,1289. 풍납토성 서성벽터B,14,1,127.11109161,37.53147125,15,송파구,풍납2동
ST-1579,1290. 위례송파꿈에그린아파트24단지 앞 성벽 다리 밑,0,6,127.13754272,37.47458267,6,송파구,위례동
ST-1580,1291. 서울체육고등학교 앞,80,2,127.13186646,37.52193832,82,강동구,성내3동
ST-1582,1293. 석촌호수 서호 사거리,1,3,127.09655762,37.50656128,4,송파구,잠실3동
ST-1584,1295. 잠실역 8번출구,48,2,127.10030365,37.51396179,50,송파구,잠실6동
ST-1585,1296. 석촌호수교차로 (송파나루근린공원 앞),0,0,127.1034317,37.50867844,0,송파구,잠실3동
ST-1586,1297. 석촌호수교차로(동호 팔각정 앞),1,0,127.10411835,37.50920105,1,송파구,잠실6동
ST-1588,1299. 송파소방서 (방이119안전센터),0,0,127.13671112,37.51987839,0,송파구,오륜동
ST-1589,1300. 오륜사거리,12,9,127.13922119,37.50693893,21,송파구,오금동
ST-825,1302. 한성대입구역6번출구 뒤,0,0,127.00630951,37.58876419,0,성북구,성북동
ST-931,1303. 돈암초교 입구,0,0,127.01249695,37.59169388,0,성북구,성북동
ST-826,1304. 만해공원,0,1,126.99230957,37.59440231,1,성북구,성북동
ST-947,1305. 성북구청,3,4,127.01643372,37.58932877,7,성북구,삼선동
ST-842,1306. 한성대입구역2번출구,0,0,127.00670624,37.58844757,0,성북구,삼선동
ST-827,1308. 안암로터리 버스정류장 앞,44,8,127.02897644,37.58259201,52,성북구,안암동
ST-559,1314. 정릉꿈에그린1단지 201동 앞,4,0,127.01168823,37.60243988,4,성북구,정릉2동
ST-560,1315. 고려사대부속중고 정문,8,0,127.00328064,37.60776138,8,성북구,정릉3동
ST-562,1316. 고려사대부속중고 건너편 ,15,0,127.00283813,37.60726166,15,성북구,정릉3동
ST-563,1318. 길음역 3번출구 뒤,0,1,127.0247879,37.60308456,1,성북구,길음1동
ST-564,1319. 종암사거리 분수대,2,0,127.03327179,37.6030426,2,성북구,월곡1동
ST-655,1321. 국민은행 종암동지점 앞,13,2,127.03666687,37.59328842,15,성북구,종암동
ST-565,1322. 래미안라센트아파트 103동 앞,0,3,127.03927612,37.59806824,3,성북구,종암동
ST-567,1323. 월곡역 입구 육교 밑,3,16,127.04020691,37.60043335,19,성북구,종암동
ST-571,1325. 상월곡역 4번출구,0,0,127.04773712,37.60580826,0,성북구,월곡2동
ST-572,1326. 상월곡역 1번출구,2,0,127.0473175,37.60606766,2,성북구,월곡2동
ST-574,1327. 상월곡역 3번출구,1,0,127.05068207,37.60734177,1,성북구,월곡2동
ST-910,1328. 월곡역 3번출구,15,3,127.04163361,37.6026268,18,성북구,월곡2동
ST-578,1332. 석계역 5번출구 건너편,11,1,127.06609344,37.61355591,12,성북구,석관동
ST-579,1333. 석관초등학교 앞,23,2,127.05979919,37.61052322,25,성북구,석관동
ST-580,1334. 석관동주민센터 앞,1,0,127.06130981,37.61299896,1,성북구,석관동
ST-1200,1336. 성북3교 위,0,0,127.01400757,37.59125137,0,성북구,삼선동
ST-1201,1337. 돈암성당 옆,1,3,127.01713562,37.59038162,4,성북구,동선동
ST-1202,1338. 용문2교 옆,0,0,127.02075195,37.5868988,0,성북구,안암동
ST-1203,1339. 삼성전자서비스 성북센터,7,4,127.0335083,37.610569,11,성북구,월곡1동
ST-1204,1340. 광운초등학교 앞,0,1,127.05500031,37.61784363,1,성북구,장위3동
ST-1206,1342. 성북쉼터 앞,0,4,126.99793243,37.59261703,4,성북구,성북동
ST-1207,1343. 한성대7번출구 앞,0,0,127.00737762,37.58924866,0,성북구,성북동
ST-1208,1344. 아리랑시네센터 앞,4,4,127.01370239,37.60028839,8,성북구,돈암2동
ST-1210,1346. 길음8골어린이공원 옆,1,4,127.02024841,37.60897827,5,성북구,길음1동
ST-1211,1347. 길음래미안아파트817동 상가 앞,0,0,127.02149963,37.60710526,0,성북구,길음1동
ST-1212,1348. 성북제일새마을금고 본점 앞,2,3,127.02275848,37.60475159,5,성북구,길음1동
ST-1213,1349. 월계2교 버스정류장 앞,21,0,127.05020142,37.62382889,21,성북구,장위3동
ST-1215,1351. 안암2교 옆,0,2,127.02419281,37.5794487,2,성북구,안암동
ST-1216,1352. e 편한세상 보문아파트 내,2,0,127.01709747,37.58388138,2,성북구,보문동
ST-1217,1353. 금호어울림센터힐 내,5,1,127.02355194,37.60083008,6,성북구,돈암1동
ST-1317,1354. 고려대학교 2번출구,15,0,127.03619385,37.5907135,15,성북구,안암동
ST-1347,1355. 보문2교,0,0,127.01891327,37.58869934,0,성북구,안암동
ST-1383,1357. 북한산보국문역,8,1,127.00813293,37.61207199,9,성북구,정릉4동
ST-1384,1358. 정릉도서관 앞,1,0,127.01058197,37.60478973,1,성북구,정릉2동
ST-1386,1360. 정릉역,4,0,127.01350403,37.60309601,4,성북구,정릉2동
ST-1424,1361. 홍익중고 입구,13,0,127.00223541,37.59296799,13,성북구,성북동
ST-1454,1362. 보문역6번출구 앞,1,2,127.01966858,37.58519745,3,성북구,보문동
ST-1455,1363. 보문4교 인근,0,0,127.02194977,37.58375168,0,성북구,안암동
ST-1456,1364. 성북동 치안센터 앞,0,0,127.00408936,37.59017181,0,성북구,성북동
ST-1457,1365. 선잠단지 앞,0,0,126.9990921,37.5933609,0,성북구,성북동
ST-1458,1366. 일신초등학교 옆,3,13,127.04038239,37.59972,16,성북구,종암동
ST-1459,1367. 길음문화복합미디어센터,13,4,127.02261353,37.60429764,17,성북구,길음1동
ST-1460,1368. 성신여대입구 교차로,4,1,127.02015686,37.59139633,5,성북구,동선동
ST-1634,1370. 복자사랑 피정의 집,1,4,126.99520874,37.59453964,5,성북구,성북동
ST-1636,1372. KEB은행 고대점,12,2,127.03160095,37.58644485,14,성북구,안암동
ST-1637,1373. 성북구보건소 건너편,1,5,127.03907776,37.60235596,6,성북구,월곡2동
ST-1723,1375. 생명의 전화 종합복지관 앞 교차로,21,7,127.0373764,37.60390854,28,성북구,월곡1동
ST-1745,1376. 한국과학기술연구원 중문,5,0,127.0437851,37.59730911,5,성북구,월곡2동
ST-1746,1377. 한국과학기술연구원 북문,1,0,127.04549408,37.60418701,1,성북구,월곡2동
ST-2222,1380.월곡역 5번출구 앞,4,0,127.04123688,37.60108566,4,성북구,월곡2동
ST-2223,1381.석계역 4번출구 뒤,8,0,127.06700134,37.61478424,8,성북구,석관동
ST-2406,1382.래미안월곡아파트 입구,0,0,127.03627014,37.60866547,0,성북구,월곡1동
ST-2225,1384.성신여대입구역 5번출구,0,0,127.01628876,37.59282684,0,성북구,동선동
ST-2226,1385.성신여대입구역 3번출구 앞,0,0,127.01628876,37.59236526,0,성북구,삼선동
ST-2227,1386.동선고가차도 초입,1,1,127.01896667,37.59415817,2,성북구,동선동
ST-2229,1388. 돈암초교입구 버스정류장(한성대입구역 방면),0,0,127.01170349,37.59088135,0,성북구,삼선동
ST-2231,1390.석관래미안아트리치,14,4,127.06162262,37.60646057,18,성북구,석관동
ST-2232,1391.성북청소년센터,0,1,127.05606842,37.61688232,1,성북구,장위3동
ST-2233,1392.돈암삼성풍림아파트,15,2,127.02262878,37.5970993,17,성북구,돈암1동
ST-2234,1393.돈암육교 하단,8,3,127.0211792,37.59818268,11,성북구,돈암1동
ST-2235,1394.길음뉴타운 래미안9단지,4,1,127.01998138,37.60242462,5,성북구,정릉1동
ST-2236,1395.래미안장위포레카운티(102동),5,1,127.05183411,37.61817932,6,성북구,장위3동
ST-2237,1396.래미안장위퍼스트하이(513동),41,0,127.05145264,37.61844254,41,성북구,장위1동
ST-558,1401. 극동늘푸른아파트,23,0,127.07636261,37.61473846,23,중랑구,묵2동
ST-561,1402. 금란주차장 앞,18,1,127.10233307,37.60007095,19,중랑구,망우본동
ST-566,1403. 중화빌딩 앞 (동부시장),24,7,127.07657623,37.59424973,31,중랑구,중화2동
ST-599,1404. 동일로 지하차도,7,0,127.08003235,37.59529877,7,중랑구,중화2동
ST-568,1405. 망우역 1번출구,1,1,127.09294891,37.59909821,2,중랑구,상봉1동
ST-847,1407. 먹골역 1번출구 뒤,12,2,127.07788849,37.61151123,14,중랑구,묵1동
ST-570,1408. 먹골역 6번출구 앞,26,2,127.0774765,37.61072159,28,중랑구,묵2동
ST-573,1410. 면목 대원칸타빌아파트,1,0,127.09018707,37.57778168,1,중랑구,면목7동
ST-912,1411. 상봉시장앞 교차로 한성빌딩 앞,1,0,127.08673859,37.59254074,1,중랑구,면목본동
ST-849,1414. 사가정역 2번출구,11,0,127.08824158,37.58098984,11,중랑구,면목3·8동
ST-850,1416. 상봉역 3번출구,25,8,127.08599854,37.59521866,33,중랑구,상봉2동
ST-583,1418. 새솔초등학교,3,0,127.10901642,37.61743927,3,중랑구,신내1동
ST-585,1420. 신내어울공원 앞,6,2,127.09770203,37.61394501,8,중랑구,신내1동
ST-586,1421. 신내역 4번출구,0,0,127.1033783,37.61246109,0,중랑구,신내1동
ST-587,1422. 신내우디안아파트 1단지,4,0,127.10646057,37.62009811,4,중랑구,신내1동
ST-588,1424. 양원역 2번출구,5,0,127.10774231,37.6063118,5,중랑구,망우본동
ST-589,1425. 신성미소지움아파트,12,1,127.09597015,37.58745956,13,중랑구,면목3·8동
ST-590,1426. 면목도시개발아파트 1동 앞,20,2,127.08682251,37.57358932,22,중랑구,면목4동
ST-852,1427. 용마산역 1번출구,0,0,127.08691406,37.57429886,0,중랑구,면목4동
ST-853,1428. 원묵고등학교,0,0,127.08596802,37.61602402,0,중랑구,묵1동
ST-854,1429. 장안중학교,50,3,127.08000183,37.59995651,53,중랑구,중화1동
ST-855,1430. 중랑구청,10,0,127.09259796,37.60615158,10,중랑구,신내2동
ST-856,1431. 중랑구청 사거리,0,1,127.09545135,37.60649872,1,중랑구,신내1동
ST-857,1433. 중화역 2번출구,33,3,127.07958221,37.60207748,36,중랑구,중화1동
ST-593,1435. 능산삼거리,3,0,127.10079193,37.60868073,3,중랑구,신내1동
ST-594,1436. 동원베네스트 건물 앞,1,1,127.10118103,37.60810089,2,중랑구,신내1동
ST-595,1437. 늘푸른공원 앞,4,1,127.07992554,37.5834198,5,중랑구,면목5동
ST-596,1438. 홈플러스 신내점 앞,44,5,127.09348297,37.61616898,49,중랑구,신내2동
ST-942,1440. 면목2동 사거리,27,2,127.0800705,37.58637238,29,중랑구,면목5동
ST-584,1441. 신내능말공원,0,0,127.11026001,37.61670685,0,중랑구,신내1동
ST-1093,1442. 중랑구청 중화동 별관 앞,12,0,127.07981873,37.59859085,12,중랑구,중화2동
ST-1095,1444. 면목4치안센터,12,1,127.08054352,37.57402802,13,중랑구,면목4동
ST-1096,1445. 용마지구대 A,16,1,127.07939911,37.5799408,17,중랑구,면목5동
ST-1097,1446. 중랑전화국 교차로,22,1,127.0803299,37.59130096,23,중랑구,면목2동
ST-1098,1447. 면목역 3번출구,28,6,127.08728027,37.58890152,34,중랑구,면목본동
ST-1099,1448. 코스트코 상봉점,0,0,127.08979797,37.59732056,0,중랑구,상봉2동
ST-1332,1449. 상봉역 1번출구,47,2,127.08583832,37.59655762,49,중랑구,상봉1동
ST-1333,1450. 화랑대역 7번출구,54,4,127.08504486,37.61963654,58,중랑구,묵1동
ST-1334,1451. 중랑세무서,6,8,127.07266998,37.59275818,14,중랑구,상봉2동
ST-1335,1452. 겸재교 진입부,63,7,127.07505035,37.58565521,70,중랑구,면목2동
ST-1345,1453. 중랑캠핑숲,5,2,127.10925293,37.60460281,7,중랑구,망우본동
ST-1346,1454. 한국전력공사(동대문 중랑지사),28,2,127.07859039,37.6073494,30,중랑구,묵1동
ST-1375,1455. 상봉역 2번 출구,47,1,127.08589935,37.59632874,48,중랑구,상봉2동
ST-1380,1456. 상아빌딩(우림시장 교차로),9,2,127.10032654,37.59511185,11,중랑구,망우3동
ST-1381,1457. 동원사거리,1,1,127.09323883,37.58975983,2,중랑구,면목본동
ST-1451,1458. 상봉터미널2,21,4,127.09308624,37.59733963,25,중랑구,망우본동
ST-1452,1459. 용마한신아파트사거리,0,0,127.09265137,37.58034897,0,중랑구,면목7동
ST-2282,1461.동양엔파트 앞,33,2,127.07507324,37.593853,35,중랑구,중화2동
ST-2283,1462.동부시장 북문 앞,14,1,127.07652283,37.59386826,15,중랑구,상봉2동
ST-2284,1463.중랑구민회관,1,1,127.08500671,37.57407761,2,중랑구,면목4동
ST-2285,1464.중화역 4번출구,36,4,127.07900238,37.60305405,40,중랑구,중화2동
ST-2287,1466.두산대림아파트 삼거리,26,0,127.08757019,37.61882401,26,중랑구,묵1동
ST-2288,1467.sk신내 주유소앞(용마산로),14,1,127.10115051,37.61362076,15,중랑구,신내1동
ST-2289,1468.먹골역 7번 출구,10,0,127.07739258,37.6114769,10,중랑구,묵2동
ST-2290,1469.먹골역 4번출구,39,2,127.07813263,37.60982132,41,중랑구,묵1동
ST-2291,1470.중화동 우리은행 앞,43,0,127.07858276,37.60520172,43,중랑구,묵2동
ST-2292,1471.동양쇼핑 정류소 앞,31,2,127.07849121,37.61535263,33,중랑구,묵1동
ST-2293,1472.영성빌딩(PAT),17,0,127.07923126,37.60408401,17,중랑구,중화1동
ST-2294,1473.중랑역 1번 출구(중화문화복지센터),16,1,127.07495117,37.59489059,17,중랑구,중화2동
ST-2298,1477.면목삼익아파트 앞,14,1,127.0796051,37.57598495,15,중랑구,면목4동
ST-2299,1478.홈플러스 상봉점 앞,4,2,127.0922699,37.59832764,6,중랑구,상봉1동
ST-2300,1479.면목 홈플러스 2 ,32,5,127.08209229,37.58105469,37,중랑구,면목5동
ST-2301,1480. 용마지구대 B,36,3,127.08010101,37.58111191,39,중랑구,면목5동
ST-948,"1501. 미아역 3번,4번 출구 사이",10,2,127.02648163,37.62607956,12,강북구,송천동
ST-643,1503. 강북구청사거리(수유역 8번출구),42,0,127.02672577,37.63926315,42,강북구,수유3동
ST-644,1504. 삼양시장오거리,2,0,127.01862335,37.62415695,2,강북구,송천동
ST-645,1506. 강북문화예술회관,7,0,127.01335907,37.64032745,7,강북구,인수동
ST-859,1509. 서울북부수도사업소,10,0,127.03575134,37.63437653,10,강북구,번1동
ST-860,1510. 번동주공5단지 관리사무소 앞,10,0,127.03551483,37.63371658,10,강북구,번2동
ST-861,1511. 번동 금호어울림아파트102동앞,11,1,127.03603363,37.63112259,12,강북구,번2동
ST-862,1512. 강북중학교 앞,15,4,127.02656555,37.64473724,19,강북구,수유3동
ST-863,1513. 강북구청 뒷편,7,0,127.02519989,37.63967133,7,강북구,수유3동
ST-646,1514. 강북구청 사거리 버스정류소 앞,6,0,127.02835846,37.63880539,6,강북구,번1동
ST-648,1515. 송천동 주민센터,1,0,127.02404785,37.61828613,1,강북구,송천동
ST-652,1516. 우이초등학교 후문 옆,2,0,127.01590729,37.63858795,2,강북구,인수동
ST-654,1518. 수유2동은행빌딩 앞,12,1,127.01616669,37.64308548,13,강북구,수유2동
ST-651,1519. 장미원시장 건너편,9,0,127.01561737,37.64545059,9,강북구,수유2동
ST-650,1520. 수유중앙시장,13,0,127.022789,37.63986206,13,강북구,수유3동
ST-647,1525. 미아동 복합청사,5,0,127.02669525,37.62714005,5,강북구,미아동
ST-1100,1526. 강북종합시장 앞,15,0,127.02462769,37.64173889,15,강북구,수유3동
ST-1101,1527. 미아역 1번 출구 뒤,9,0,127.02605438,37.62733459,9,강북구,번1동
ST-1102,1528. 삼각산동 주민센터,8,0,127.02069855,37.61503601,8,강북구,삼각산동
ST-1103,1529. 미아동 한국전력공사,12,1,127.02490997,37.63018036,13,강북구,미아동
ST-1104,1530. 광산사거리,8,0,127.0223465,37.64355087,8,강북구,수유2동
ST-1105,1531. 미아사거리 1번 출구,23,0,127.03025055,37.61395645,23,강북구,송중동
ST-1106,1532. 번3동 주민센터 교차로,21,1,127.0474472,37.62635422,22,강북구,번3동
ST-1107,"1533. 번동 주공3, 4단지 교차로",21,3,127.04091644,37.62991714,24,강북구,번3동
ST-1109,1535. 효성인텔리안 앞,7,0,127.02337646,37.6362915,7,강북구,수유3동
ST-1110,1536. 번동 두산위브 101동 옆,1,0,127.03217316,37.63626099,1,강북구,번1동
ST-1387,1537. 북한산 우이역,1,0,127.01242828,37.66366577,1,강북구,우이동
ST-1388,1538. 솔밭공원역,1,0,127.01313782,37.65615845,1,강북구,우이동
ST-1389,1539. 4.19민주묘지역,11,0,127.01345062,37.64967346,11,강북구,수유2동
ST-1390,1540. 가오리역,8,0,127.01688385,37.64167023,8,강북구,수유2동
ST-1391,1541. 삼양역,0,0,127.01805878,37.62652969,0,강북구,삼양동
ST-1392,1542. 삼양사거리역,2,0,127.02037048,37.62155151,2,강북구,송천동
ST-1423,1543. 수유1동 주민센터,3,0,127.01773834,37.63018799,3,강북구,수유1동
ST-1665,1546. 송천동우체국,6,2,127.02970123,37.61545944,8,강북구,송중동
ST-1724,1547. 꿈의숲 롯데캐슬,0,0,127.03570557,37.61775208,0,강북구,송중동
ST-1725,1548. 북서울 꿈의숲 서문,19,2,127.03781128,37.62268829,21,강북구,번3동
ST-2123,1550.삼각산아이원아파트(105동 옆),0,0,127.01850891,37.61522293,0,강북구,삼각산동
ST-2124,1551.4.19탑 앞,10,1,127.00881195,37.64686203,11,강북구,우이동
ST-2125,1552. 강북구청사거리,8,0,127.02723694,37.63920212,8,강북구,번1동
ST-2126,1553.서울북부고용노동지청,2,0,127.03396606,37.63520432,2,강북구,번2동
ST-2127,1554.번동사거리,4,1,127.03455353,37.63539124,5,강북구,번1동
ST-2129,1557.신창교,18,0,127.03930664,37.63238144,18,강북구,번2동
ST-2130,1558.강북문화정보도서관,4,0,127.037323,37.62552643,4,강북구,번3동
ST-2132,1560. 도봉세무서 앞,9,1,127.02852631,37.6198082,10,강북구,송천동
ST-2133,1564.4.19민주묘지역 1번출구,12,0,127.01384735,37.64959717,12,강북구,수유2동
ST-2134,1565.수유사거리,6,0,127.022995,37.63561249,6,강북구,인수동
ST-2136,1568.4.19민주묘지 입구사거리,1,0,127.01457214,37.64793396,1,강북구,수유2동
ST-2137,1569.수유역2번출구,19,0,127.02590179,37.63796997,19,강북구,번1동
ST-2401,1571.북서울 꿈의 숲 입구,14,0,127.03877258,37.62673187,14,강북구,번3동
ST-2402,1572. 우이동 먹거리마을,1,0,127.01184082,37.66446304,1,우이동,우이역 회전교차로
ST-2403,1573.현대성우아파트 옆,0,0,127.02210999,37.61666489,0,강북구,송천동
ST-2405,1574.송중초등학교 옆,16,2,127.03049469,37.61669922,18,강북구,송중동
ST-600,1601. 석계역 문화광장 내 자전거 보관소,34,1,127.06464386,37.61518097,35,노원구,월계1동
ST-913,1602. 광운대역 앞,14,2,127.06189728,37.62266159,16,노원구,월계1동
ST-866,1605. 헬스케어,21,2,127.06161499,37.63162231,23,노원구,월계3동
ST-602,1606. 태릉입구역 3번출구 ,11,0,127.07492828,37.61917114,11,노원구,공릉1동
ST-735,1608. 공릉역 1번 출구 앞,0,0,127.07275391,37.62661362,0,노원구,공릉1동
ST-603,1610. 화랑대역 2번출구 앞,11,0,127.08364105,37.62036896,11,노원구,공릉2동
ST-604,1611. 과기대 입구(우),30,0,127.07655334,37.62994003,30,노원구,공릉1동
ST-605,1616. 하계2동 공항버스정류장 옆,1,3,127.06832886,37.63510895,4,노원구,하계1동
ST-736,1619. 중계동 하나프라자빌딩 앞(중1-1),1,0,127.07640839,37.64902115,1,노원구,중계1동
ST-867,1620. 중계동 노원구민체육센터 옆(중1-2),1,1,127.07022095,37.64820862,2,노원구,중계1동
ST-914,1625. 상계역 3번출구,1,0,127.07296753,37.65999985,1,노원구,중계4동
ST-915,1627. 수락산역 4번출구,3,0,127.05509949,37.67694092,3,노원구,상계1동
ST-868,1628. 노일초등학교 앞,8,0,127.05525208,37.67361832,8,노원구,상계1동
ST-869,1630. 수연빌딩 앞,12,0,127.05550385,37.67625046,12,노원구,상계1동
ST-608,1634. 당고개공원 대여소,5,0,127.07714844,37.66846085,5,노원구,상계3·4동
ST-609,"1635. 상계3,4동 주민센터 대여소",3,0,127.0831604,37.67271042,3,노원구,상계3·4동
ST-610,1636. 상계주공2단지 버스정류장 옆,5,1,127.06176758,37.64921188,6,노원구,상계6·7동
ST-611,1637. KT 전화국 버스정류장 옆,18,0,127.06340027,37.65470123,18,노원구,상계6·7동
ST-612,1639. 희성오피앙,11,1,127.05506897,37.68031311,12,노원구,상계1동
ST-971,1640. 한내근린공원 북측,15,1,127.06848907,37.62386322,16,노원구,월계3동
ST-970,1641. 한내근린공원 남측,9,2,127.06951141,37.62155533,11,노원구,월계3동
ST-964,1642. 서울여대 남문,19,0,127.08813477,37.62531662,19,노원구,공릉2동
ST-1111,1643. 태릉입구역 8번출구,25,2,127.07521057,37.61736679,27,노원구,공릉1동
ST-1114,1646. 삼육대 입구,28,1,127.10790253,37.63848877,29,노원구,공릉2동
ST-1118,1650. 중계근린공원내,1,1,127.06510162,37.63957977,2,노원구,중계2·3동
ST-1119,1651. 상계동 우방유쉘아파트 앞,7,2,127.05599213,37.67237473,9,노원구,상계1동
ST-1120,1652. 파르코 앞,7,0,127.05558014,37.68000031,7,노원구,상계1동
ST-1121,1653. 노원역1번출구,33,0,127.06362152,37.65620041,33,노원구,상계2동
ST-1122,1654. 당고개입구 오거리,0,0,127.07544708,37.66379166,0,노원구,상계3·4동
ST-1123,1655. 공릉1단지아파트,1,1,127.07015991,37.63111115,2,노원구,공릉1동
ST-1124,1656. 중앙하이츠 아파트 입구,12,0,127.06750488,37.65501785,12,노원구,상계2동
ST-1125,1657. 노원구청 ,45,0,127.05732727,37.65404892,45,노원구,상계6·7동
ST-1127,1659. 중계동 을지중학교,0,0,127.07160187,37.65032959,0,노원구,중계1동
ST-1128,1660. 서울시립과학관,11,0,127.07662201,37.64207077,11,노원구,하계1동
ST-1278,1661. 당현천근린공원,2,1,127.06560516,37.64963913,3,노원구,상계6·7동
ST-1279,1662. 노원역7번출구,34,0,127.05921173,37.65421677,34,노원구,상계6·7동
ST-1280,1663. 동해문화예술관앞,50,1,127.0578537,37.61938095,51,노원구,월계1동
ST-1282,1665. 양지근린공원앞,3,3,127.07640076,37.64699554,6,노원구,하계1동
ST-1283,1666. 노원소방서인근,0,0,127.07177734,37.65578079,0,노원구,상계2동
ST-1284,1667. 중계중학교,6,0,127.0743866,37.65449905,6,노원구,중계4동
ST-1285,1668. 중계역 6번출구,18,0,127.06334686,37.64556503,18,노원구,중계2·3동
ST-1286,1669. 중계역 3번출구,4,0,127.06522369,37.64352798,4,노원구,중계2·3동
ST-1287,1670. 노원경찰서교차로,16,0,127.07183838,37.64340973,16,노원구,하계1동
ST-1288,1671. 인덕대학교,14,3,127.05482483,37.62934875,17,노원구,월계2동
ST-1289,1672. 상계동수락리버시티,3,2,127.05340576,37.68859863,5,노원구,상계1동
ST-1291,1674. 서울북부고용센터앞,24,1,127.05808258,37.65354919,25,노원구,상계6·7동
ST-1348,1675. 월계문화체육센터,5,1,127.05513,37.62694168,6,노원구,월계2동
ST-1349,1677. 육군사관학교  앞,30,1,127.09049988,37.62316513,31,노원구,공릉2동
ST-1394,1678. 성서대학교 밀알관,14,0,127.0644455,37.6484375,14,노원구,상계6·7동
ST-1395,1679. 삼육대 도서관,5,1,127.10666656,37.6428299,6,노원구,공릉2동
ST-1396,1680. 삼육대 제3과학관,9,0,127.10838318,37.64265442,9,노원구,공릉2동
ST-1425,1681. 현대6차 아파트,18,1,127.08226013,37.64580154,19,노원구,중계본동
ST-1426,1682. 중계종합사회복지관 교차로,0,0,127.07554626,37.65745544,0,노원구,중계4동
ST-1473,1683. 노원문화예술회관,14,0,127.08088684,37.65045929,14,노원구,중계본동
ST-1474,1684. 태릉입구역 5번출구,7,1,127.07563019,37.61832047,8,노원구,공릉1동
ST-1475,1685. 불암고등학교 앞 횡단보도,14,0,127.08048248,37.64818954,14,노원구,중계본동
ST-1476,1686. 상계주공10단지 종합상가 앞,0,0,127.05805206,37.66114044,0,노원구,상계10동
ST-1639,1688. 마들역 7번출구,4,3,127.05729675,37.66566086,7,노원구,상계10동
ST-1640,1689. 마들역 3번출구,11,1,127.05789185,37.66524887,12,노원구,상계9동
ST-1641,1690. 도봉운전면허시험장 버스정류장 옆,18,0,127.05931091,37.6577301,18,노원구,상계10동
ST-1642,1691. 노원정보도서관,4,0,127.06533051,37.66070938,4,노원구,상계10동
ST-1672,1692. 온곡초교 교차로,1,0,127.06600952,37.66418839,1,노원구,상계9동
ST-1740,1693. 원자력 병원,6,0,127.08210754,37.62818909,6,노원구,공릉2동
ST-2062,1696.수락리버시티4단지,0,1,127.05283356,37.68645096,1,노원구,상계1동
ST-2063,1697.상계주공2단지 219동,1,0,127.05715179,37.65024948,1,노원구,상계6·7동
ST-613,1702. 녹천역 1번출구 앞,24,0,127.05042267,37.64582062,24,도봉구,창1동
ST-657,1703. 도봉산광역환승센터앞 ,7,1,127.04519653,37.68972015,8,도봉구,도봉1동
ST-614,1705. 도봉구청 정문앞,23,0,127.04651642,37.66922379,23,도봉구,도봉2동
ST-916,1706. 방학동우체국 건너편,7,0,127.0426712,37.66566467,7,도봉구,방학1동
ST-615,1707. 도봉구민회관,3,0,127.03851318,37.65446091,3,도봉구,창5동
ST-658,1708. 도봉보건소사거리,0,2,127.03984833,37.65682983,2,도봉구,창5동
ST-616,1709. 쌍문역4번출구 주변,20,0,127.03534698,37.65012741,20,도봉구,쌍문3동
ST-1129,1713. 쌍문동 이안아파트 앞,8,0,127.02848816,37.65165329,8,도봉구,쌍문4동
ST-1130,1714. 도봉문화정보도서관 삼거리,6,1,127.04460907,37.64463043,7,도봉구,창1동
ST-1131,1715. 서울특별시교육청도봉도서관,29,1,127.01278687,37.65317917,30,도봉구,쌍문1동
ST-1132,1716. 창동역 1번출구 건너편,11,0,127.05072784,37.65420151,11,도봉구,창4동
ST-1135,1719. 신도봉사거리 버스정류장,10,1,127.04399109,37.67328262,11,도봉구,도봉1동
ST-1136,1720. 도봉구청 옆(중랑천변),47,2,127.04798126,37.66867065,49,도봉구,방학1동
ST-1137,1721. 창동역 2번출구 ,38,1,127.04699707,37.65301514,39,도봉구,창5동
ST-1292,1722. 창동청소년수련관,13,2,127.05004883,37.65779877,15,도봉구,창4동
ST-1293,1723. 방학동학마을도서관,13,0,127.02771759,37.66207886,13,도봉구,방학3동
ST-1295,1725. 창1동주민센터,10,0,127.04331207,37.6475029,10,도봉구,창1동
ST-1296,1726. 삼익세라믹아파트교차로,1,1,127.03520966,37.65858841,2,도봉구,쌍문2동
ST-1297,1727. 서울도봉초등학교인근,14,0,127.04076385,37.67867661,14,도봉구,도봉1동
ST-1434,1728. 서울북부지방법원,15,0,127.04681396,37.67771912,15,도봉구,도봉2동
ST-1461,1729. 도봉한신아파트 버스정류장,9,3,127.04579163,37.68400955,12,도봉구,도봉1동
ST-1462,1730. 도봉산역 교차로 앞,10,0,127.04550171,37.68759155,10,도봉구,도봉1동
ST-1463,1731. 도봉고등학교 맞은편,3,1,127.04221344,37.6876297,4,도봉구,도봉1동
ST-1464,1732. 방학역사거리,16,0,127.04299927,37.66759872,16,도봉구,방학1동
ST-1465,1733. 방학사거리 (봄마당 앞),8,0,127.04193878,37.66297913,8,도봉구,방학1동
ST-1466,1734. 쌍문현대1차아파트 108동 앞,0,0,127.03266907,37.65814972,0,도봉구,쌍문4동
ST-1467,"1735. 도봉역 1,2번 출구사이 건너편",12,0,127.04498291,37.67911911,12,도봉구,도봉1동
ST-1468,1736. 버스정류장 앞,8,0,127.0370636,37.65224075,8,도봉구,창5동
ST-1469,1737. 신창시장,23,2,127.03883362,37.63970184,25,도봉구,창2동
ST-1470,1738. 창동주공17단지 상가앞,17,2,127.052742,37.6463089,19,도봉구,창4동
ST-1638,1741. 제일강산수산입구,10,0,127.03298187,37.64519882,10,도봉구,창2동
ST-1726,1742. 북한산 코오롱 하늘채,26,0,127.02301788,37.64889145,26,도봉구,쌍문1동
ST-2088,1743.창동19단지아파트 관리사무소앞,2,0,127.05219269,37.65039062,2,도봉구,창4동
ST-2089,1744.도봉소방서 옆,17,0,127.04302979,37.66480255,17,도봉구,방학1동
ST-2094,1749. ESA아파트 상가 앞,2,0,127.04598999,37.66627121,2,도봉구,방학1동
ST-2095,1750. 창포원 남쪽 입구,11,0,127.04889679,37.68826675,11,도봉구,도봉2동
ST-2096,1751. 창원초등학교 교차로,4,2,127.04170227,37.6521225,6,도봉구,창5동
ST-2097,1752. 창동 주공 4단지 입구 옆,5,1,127.04857635,37.64548111,6,도봉구,창1동
ST-2099,1754. 창동시장입구 사거리,0,0,127.03343201,37.64689636,0,도봉구,쌍문3동
ST-2101,1756.서울북부광역등기국,9,0,127.04431915,37.65148544,9,도봉구,창5동
ST-2102,1757.솔밭공원역 1번출구 앞,2,0,127.01338196,37.65568542,2,도봉구,쌍문1동
ST-2103,1758.솔밭공원역 1번출구 주변,9,0,127.0137558,37.65727997,9,강북구,쌍문1동
ST-2104,1759.서울북부지방법원 앞,11,0,127.04863739,37.67721939,11,도봉구,도봉2동
ST-2106,1761.방학중학교 앞,7,1,127.03108978,37.66562271,8,도봉구,방학2동
ST-2107,1762.북한산 한신휴플러스APT앞,1,0,127.04241943,37.65533829,1,도봉구,창5동
ST-2110,1765.쌍문역 1번출구 주변,17,0,127.03561401,37.64966965,17,도봉구,창1동
ST-2112,1767.방학초등학교 앞,13,1,127.03327942,37.66250992,14,도봉구,방학2동
ST-2113,1768.신동아타워 버스정류소,4,2,127.02874756,37.66208267,6,도봉구,방학3동
ST-2115,1770.도봉한신아파트 주변,1,0,127.0500412,37.68473816,1,도봉구,도봉2동
ST-2116,1771.성원APT버스정류소,1,0,127.03009033,37.65796661,1,도봉구,쌍문4동
ST-2117,1772.시립도봉노인복지관 버스정류소,2,0,127.03575897,37.65805054,2,도봉구,쌍문2동
ST-2119,1774.정의여중고 버스정류소,8,0,127.034729,37.65134811,8,도봉구,쌍문2동
ST-2120,1775.신원리베르텔 앞,10,0,127.04554749,37.65128708,10,도봉구,창5동
ST-619,1804. 독산역 2번출구 자전거주차장,5,1,126.88871765,37.46652985,6,금천구,가산동
ST-620,1805. 서울디지털운동장 앞,39,0,126.87776947,37.48228836,39,금천구,가산동
ST-621,1806. 에이스하이엔드타워9차 앞,51,0,126.87863922,37.48621368,51,구로구,구로1동
ST-622,1808. 에이스하이엔드타워8차 앞,39,0,126.8849411,37.47320938,39,금천구,가산동
ST-623,1809. LG전자 별관동(호서대 벤처타워 맞은편),43,0,126.88515472,37.47077942,43,금천구,가산동
ST-624,1812. 갑을그레이트밸리 앞,30,3,126.88729858,37.47903061,33,금천구,가산동
ST-625,1814. 두산위브아파트 옆 상가건물 앞,0,0,126.89412689,37.47422028,0,금천구,가산동
ST-642,1819. 금천구청 앞 자전거거치대,12,3,126.89592743,37.45647812,15,금천구,시흥1동
ST-628,1820. 신한은행 시흥대로금융센터지점,6,1,126.90335846,37.4433403,7,금천구,시흥3동
ST-629,1821. 홈플러스 시흥점 맞은편 다비치안경 앞,6,1,126.90211487,37.45145798,7,금천구,시흥1동
ST-630,1822. 서울 시흥동우체국 앞,1,0,126.90090942,37.45299149,1,금천구,시흥1동
ST-631,1823. 상신정비공업 앞,19,0,126.89859009,37.4589119,19,금천구,독산1동
ST-632,1824. 독산근린공원 입구,2,0,126.88372803,37.46455002,2,금천구,독산1동
ST-633,1825. 한신아파트 앞 육교 아래,21,0,126.89105225,37.45470047,21,금천구,독산1동
ST-634,1826. 한신코아 앞,0,2,126.88834381,37.45684052,2,금천구,독산1동
ST-660,1827. 독산보도육교 앞 자전거 보관소,1,0,126.89306641,37.45672607,1,금천구,독산1동
ST-635,1828. 한양수자인아파트 앞,8,5,126.89888763,37.47531891,13,금천구,독산3동
ST-636,1829. 홈플러스 금천점 앞,4,1,126.89720154,37.4691391,5,금천구,독산1동
ST-637,1830. 빅마켓 금천점 앞,4,0,126.89507294,37.4702301,4,금천구,독산1동
ST-638,1831. 한국전력 구로금천지사 앞,8,1,126.89795685,37.47249985,9,금천구,독산1동
ST-639,1833. 독산역 1번출구 A,15,1,126.89028168,37.46654129,16,금천구,독산1동
ST-640,1834. 월드메르디앙 벤처센터 2차,50,0,126.87904358,37.47908401,50,금천구,가산동
ST-641,1835. STX V타워,4,0,126.88442993,37.47706985,4,금천구,가산동
ST-661,1836. 금천구립 독산도서관,8,0,126.90814209,37.46740341,8,금천구,독산4동
ST-1140,1839. 수출의 다리 아래,27,0,126.88615417,37.47743607,27,금천구,가산동
ST-1141,1840. 솔브레인이엔지 뒤편,36,2,126.88845825,37.47555161,38,금천구,가산동
ST-1142,1841. 가산동 주민센터,0,2,126.89186859,37.4769516,2,금천구,가산동
ST-1143,1842. 한울중학교,2,0,126.90686035,37.46257401,2,금천구,시흥4동
ST-1144,1843. 독산고등학교,0,2,126.91113281,37.47709656,2,금천구,독산3동
ST-1146,1845. 롯데캐슬골드파크1차 서문,1,0,126.89218903,37.460289,1,금천구,독산1동
ST-1147,1846. 롯데캐슬골드파크1차 동문,1,2,126.89604187,37.46017075,3,금천구,독산1동
ST-1148,1847. 독산주공 14단지 버스정류소,2,1,126.88716888,37.46093369,3,서울특별시,금천구
ST-1149,1848. 벽산 디지털밸리 5차,78,4,126.88539124,37.4762764,82,금천구,가산동
ST-1276,1849. 대륭포스트타워5차,23,0,126.88694,37.48135376,23,금천구,가산동
ST-1277,1850. 코오롱테크노밸리,17,0,126.8863678,37.48015976,17,금천구,가산동
ST-1403,1851. 가산디지털단지 9번출구 인근,7,0,126.88148499,37.48123169,7,금천구,가산동
ST-1534,1853. 서울디자인직업전문학교 앞,13,0,126.89586639,37.47248077,13,금천구,독산1동
ST-1535,1854. 가산아네스트 오피스텔 앞,18,1,126.89740753,37.47817993,19,금천구,독산1동
ST-1536,1855. 성지아파트 옆 도로변,15,1,126.89762115,37.45132065,16,금천구,시흥1동
ST-1537,1856. 모두의학교,13,0,126.90737152,37.47840881,13,금천구,독산3동
ST-1538,1857. 주공14단지,0,0,126.88709259,37.46055984,0,서울특별시,금천구
ST-1648,"1858. 500번,507번 버스 종점 앞",13,0,126.90268707,37.43727112,13,금천구,시흥3동
ST-1734,1859. 대륭테크노타운 18차,28,0,126.88684082,37.4679985,28,금천구,가산동
ST-1932,1861.IBK기업은행 석수역 지점 앞,4,0,126.90329742,37.4369812,4,금천구,시흥3동
ST-1933,1862.스타즈호텔독산 빌딩 앞,11,2,126.89758301,37.46134567,13,금천구,독산1동
ST-1934,1863.위너스 스포츠클럽 골프연습장옆,1,0,126.89860535,37.46053696,1,금천구,독산2동
ST-1935,1864.산호시티빌 옆,24,0,126.89955139,37.45652008,24,금천구,시흥1동
ST-1936,1865.금천구청앞(M빌딩),4,1,126.89645386,37.45633316,5,금천구,시흥1동
ST-1937,1866.서울안천초등학교 옆,2,0,126.88942719,37.45777893,2,금천구,독산1동
ST-1938,1867.대륭포스트타워6차 앞,102,2,126.88380432,37.48088837,104,금천구,가산동
ST-1939,1868.우리은행 시흥남자동화점 앞,0,0,126.90288544,37.44785309,0,금천구,시흥1동
ST-1940,1869.롯데캐슬골드파크3차 301동 앞,19,1,126.89671326,37.45901871,20,금천구,독산1동
ST-1941,1870.독산3동주민센터 앞,12,0,126.90335846,37.47507095,12,금천구,독산3동
ST-662,1901. 신도림동주민센터 앞,3,0,126.87973022,37.50733185,3,구로구,신도림동
ST-663,1904. 도림천역 1번 출구 앞,3,0,126.88287354,37.51424026,3,구로구,신도림동
ST-664,1906. 신도림역 1번 출구 앞,32,1,126.89009857,37.50971985,33,구로구,신도림동
ST-665,1907. 구일우성(아) 육교 밑,9,1,126.87625885,37.48963165,10,구로구,구로1동
ST-666,1908. 해원리바파크 육교 밑,0,0,126.87216187,37.49528503,0,구로구,구로1동
ST-667,1910. 낙원교회 맞은편,0,0,126.88437653,37.49750519,0,구로구,구로2동
ST-668,1911. 구로디지털단지역 앞,21,1,126.90132141,37.48493958,22,구로구,구로3동
ST-669,1912. 한신휴아파트 앞,13,7,126.89066315,37.48880005,20,구로구,구로3동
ST-918,1914. 대림역4번출구,6,0,126.89444733,37.49440384,6,구로구,구로4동
ST-671,1916. 구로중학교앞,5,0,126.88998413,37.49414062,5,구로구,구로4동
ST-673,1920. 서울미래초등학교 사거리,16,0,126.88829803,37.50437927,16,구로구,구로5동
ST-674,1924. 삼부르네상스파크빌,11,0,126.89509583,37.47874069,11,구로구,구로3동
ST-919,1925. 동양미래대학교 정문 옆,40,2,126.86769867,37.49988937,42,구로구,고척1동
ST-675,1928. 고척스카이돔구장 광장,10,0,126.86840057,37.49946976,10,구로구,고척1동
ST-676,1929. 고척근린공원 고척도서관 앞,10,1,126.85195923,37.5038147,11,구로구,고척2동
ST-677,1930. 개봉지구대 개봉치안센터,4,0,126.85372925,37.49768448,4,구로구,개봉1동
ST-920,1931. 개봉역2번출구 A,12,3,126.85825348,37.49499512,15,구로구,개봉1동
ST-678,1933. 개봉푸르지오아파트 상가,27,1,126.84728241,37.50170517,28,구로구,개봉1동
ST-870,1936. 개봉역 1번 출구 자전거보관서쪽,5,0,126.85921478,37.49428177,5,구로구,개봉2동
ST-679,1937. 한진아파트 입구,4,1,126.85201263,37.4860611,5,구로구,개봉3동
ST-871,1941. 오류동역 2번출구,27,3,126.84370422,37.49367142,30,구로구,오류2동
ST-872,1943. 온수역 북측,4,2,126.82452393,37.49279022,6,구로구,수궁동
ST-873,1946. 구로역 광장,12,1,126.88038635,37.50311661,13,구로구,구로2동
ST-874,1951. 천왕이펜하우스 4단지 후문,5,1,126.83895874,37.48070526,6,구로구,오류2동
ST-875,1952. 천왕연지타운2단지 앞,22,2,126.84572601,37.48210526,24,구로구,오류2동
ST-876,1953. 천왕역 4번출구 뒤,5,0,126.83921051,37.48638535,5,구로구,오류2동
ST-936,1955. 디지털입구 교차로,27,1,126.90103912,37.48288345,28,구로구,구로3동
ST-1218,1956. 동아1차APT105동 버스정류장(신도림중학교 방면),7,0,126.88204956,37.51000977,7,구로구,신도림동
ST-1219,1957. 구일고등학교 정문 ,13,1,126.87432861,37.49340057,14,구로구,구로1동
ST-1220,1958. 강서수도사업소민원센터,23,3,126.89012146,37.49578094,26,구로구,구로4동
ST-1221,1959. 구로구의회 앞,14,2,126.8895874,37.49645615,16,구로구,구로5동
ST-1222,1960. 구로거리공원 동측(신도림역 방면),7,2,126.88948059,37.50284958,9,구로구,구로5동
ST-1223,1961. 신도림테크노근린공원,55,1,126.89133453,37.50818253,56,구로구,구로5동
ST-1224,1962. 가리봉동주민센터,39,0,126.89279938,37.48160172,39,구로구,구로3동
ST-1226,1964. 원메디타운 앞,25,1,126.86450195,37.49789047,26,구로구,고척1동
ST-1227,1965. 삼환로즈빌아파트 105동 옆,29,0,126.85912323,37.49724197,29,구로구,개봉1동
ST-1228,1966. 한마을아파트 정문상가,32,1,126.86309814,37.49649811,33,구로구,개봉1동
ST-1229,1967. 참새공원(백곡경노당),26,1,126.84433746,37.5051384,27,구로구,개봉1동
ST-1230,1968. 동인오피스텔 건너편 소공원,1,1,126.84750366,37.49848175,2,구로구,개봉1동
ST-1231,1969. 궁동생태공원,10,2,126.82896423,37.50190353,12,구로구,수궁동
ST-1233,1971. 오정초교 앞 보도육교,1,0,126.82639313,37.49072266,1,구로구,수궁동
ST-1235,1973. 오리로와 서해안도로 교차로 앞,4,0,126.83649445,37.48859787,4,구로구,오류2동
ST-1236,1974. 신도림2차e편한세상아파트 203동 앞,14,2,126.88253784,37.50518036,16,구로구,신도림동
ST-1237,1975. 대림역 1번 출입구 밑,6,0,126.8947525,37.49256516,6,구로구,구로4동
ST-1238,1976. 남구로역 5번 출입구 앞,3,0,126.88670349,37.48567963,3,구로구,구로4동
ST-1239,1977. 천왕역 1번 출입구 앞,12,0,126.83882141,37.48620987,12,구로구,오류2동
ST-1243,1981. 천왕지구삼거리 앞,13,1,126.84269714,37.47943115,14,구로구,오류2동
ST-1273,1983. 구로동롯데아파트,4,0,126.88388062,37.50254822,4,구로구,구로5동
ST-1274,1984. 구로구청,26,3,126.88847351,37.49526596,29,구로구,구로2동
ST-1275,1985. 구로도서관,8,5,126.89199066,37.49851608,13,구로구,구로5동
ST-1521,1986. 태평양물산,101,0,126.89518738,37.48485947,101,구로구,구로3동
ST-1522,1987. 개봉아이파크아파트 앞,2,0,126.8609314,37.49034119,2,구로구,개봉2동
ST-1523,1988. 고척LIGA아파트 앞,6,1,126.86078644,37.50605011,7,구로구,고척1동
ST-1526,1991. 오류동역 맞은편,6,0,126.84496307,37.49676132,6,구로구,오류1동
ST-1527,1992. 구로구배드민턴실내체육관 앞,18,6,126.83242035,37.4917984,24,구로구,오류2동
ST-1528,1993. 금강수목원아파트 앞,9,3,126.834198,37.48937988,12,구로구,오류2동
ST-1529,1994. 삼성전자 물류센터 앞,0,0,126.8717804,37.49699783,0,구로구,구로2동
ST-1531,1996. 구일역 1번 출입구 앞,1,0,126.87100983,37.49539948,1,구로구,구로1동
ST-1696,1998. 고척교 교차로,3,1,126.871521,37.49856949,4,구로구,구로2동
ST-1732,1999. 수궁동 성당 주변,8,0,126.83065796,37.49525833,8,구로구,수궁동
ST-1733,2000. 신도림4차 e편한세상 아파트 1109동 앞,3,0,126.88683319,37.5123291,3,구로구,신도림동
ST-683,2002. 노들역 1번출구,11,2,126.95246887,37.51284409,13,동작구,노량진1동
ST-877,2003. 사육신공원앞,12,0,126.94805908,37.51335907,12,동작구,노량진1동
ST-685,2007. 유한양행앞,10,1,126.93424225,37.51293945,11,동작구,대방동
ST-686,2008. 노량진근린공원 대방공원,13,3,126.92807007,37.5093689,16,동작구,대방동
ST-726,2009. 보라매역 8번출구,8,2,126.92108154,37.50007629,10,동작구,대방동
ST-727,2012. 대림사거리(동작상떼빌아파트),16,3,126.90622711,37.48836136,19,동작구,신대방1동
ST-687,2013. 장승배기역 5번출구,1,3,126.93936157,37.50585175,4,동작구,노량진2동
ST-728,2015. 신대방삼거리역 6번출구쪽,14,11,126.92956543,37.49985504,25,동작구,대방동
ST-688,2016. 신대방삼거리역 3번출구쪽,1,1,126.92709351,37.49964523,2,동작구,대방동
ST-690,2020. 장승배기역2번출구뒷편쪽,10,2,126.93898773,37.50449753,12,동작구,상도2동
ST-691,2024. 상도역 1번출구,2,1,126.94820404,37.50217819,3,동작구,상도1동
ST-692,2025. 흑석역 1번출구,27,3,126.96361542,37.50938034,30,동작구,노량진1동
ST-932,2026. 흑석역 4번출구,2,0,126.96349335,37.50858688,2,동작구,흑석동
ST-693,2027. 중앙대학교 정문 1,22,0,126.95915222,37.50704193,22,동작구,흑석동
ST-923,2032. 이수역 11번출구쪽,13,8,126.98162079,37.48550797,21,동작구,사당2동
ST-729,2033. 사당동 아르테스 웨딩앞,6,4,126.98158264,37.48149109,10,동작구,사당1동
ST-924,2034. 사당역 7번출구쪽,2,1,126.98057556,37.47689056,3,동작구,사당1동
ST-694,2036. 정금마을 마을버스정류장,5,2,126.98244476,37.49466324,7,동작구,사당2동
ST-695,2037. 동작역 5번출구 동작주차공원,13,4,126.97714996,37.50318909,17,동작구,사당2동
ST-696,2038. 동작역 7번출구,7,1,126.97608948,37.50318146,8,동작구,사당2동
ST-697,2040. 비계 버스정류소,4,0,126.96907806,37.5063591,4,동작구,사당2동
ST-731,2041. 사당중학교 버스정류소,0,0,126.9680481,37.48683548,0,동작구,사당3동
ST-732,2048. 삼일초등학교 인근,0,0,126.97356415,37.48907852,0,동작구,사당3동
ST-699,2050. 노량진역 5번출구,43,5,126.93997192,37.51324844,48,동작구,노량진2동
ST-700,2054. 삼익아파트,2,4,126.94484711,37.51054764,6,동작구,노량진1동
ST-733,2056. 동작구민 체육센터,18,0,126.91652679,37.49449921,18,동작구,신대방2동
ST-701,2057. 상도 아이파크 아파트,0,0,126.94174957,37.5008812,0,동작구,상도2동
ST-1150,2058. 동작경찰서,50,1,126.94352722,37.5135231,51,동작구,노량진1동
ST-1151,2059. 보라매공원 정문,10,7,126.91779327,37.49707794,17,동작구,신대방2동
ST-1152,2060. 남성역3번출구 뒤,10,2,126.97154999,37.48463058,12,동작구,사당4동
ST-1153,2061. 한강 현대아파트 건너편,0,2,126.96923065,37.50592804,2,동작구,사당2동
ST-1154,2062. 사당새마을금고,3,1,126.9678421,37.48665237,4,동작구,사당3동
ST-1355,2064. 흑석한강푸르지오 106동앞,0,4,126.96617889,37.50535583,4,동작구,흑석동
ST-1356,2065. 서울시여성가족재단,4,3,126.92708588,37.51198959,7,동작구,대방동
ST-1542,2066. 양문교회 앞,19,0,126.90711212,37.48939896,19,동작구,신대방1동
ST-1543,2067. 보라매역․동작세무서 버스정류장(강남중학교방면),9,2,126.91986847,37.49766922,11,동작구,신대방2동
ST-1544,2068. 총신대 앞(육교),1,0,126.96647644,37.48815918,1,동작구,사당3동
ST-1667,2069. 숭실대 입구역3번 출구 앞,5,0,126.95368195,37.4966011,5,동작구,상도1동
ST-1545,2070. 노량진역 2번 출구 앞,59,6,126.94306946,37.51391983,65,동작구,노량진1동
ST-1742,2071. 대림아파트 후문 상가 옆,0,0,126.97190857,37.48886871,0,동작구,사당3동
ST-2350,2077.노들역 3번출구,15,5,126.9541626,37.51193619,20,동작구,노량진1동
ST-2351,2078.흑석 아크로리버하임(103동),5,2,126.96163177,37.51083755,7,동작구,흑석동
ST-2352,2079.중앙대학교 중앙광장,3,3,126.95777893,37.50667191,6,동작구,흑석동
ST-2353,2080. 대방지하보도(대방동경남아너스빌아파트),13,0,126.92543793,37.51213455,13,동작구,대방동
ST-2355,2082.7호선 이수역7번출구,14,2,126.98179626,37.4846077,16,동작구,사당1동
ST-2356,2083.흑석롯데캐슬에듀포레(107동),0,0,126.96073151,37.50470352,0,동작구,흑석동
ST-2357,2084.e편한세상 상도노빌리티 앞,10,4,126.94678497,37.50456238,14,동작구,상도2동
ST-2358,2085.강남중학교 앞,15,6,126.92157745,37.50274277,21,동작구,대방동
ST-2359,2086.삼일수영장 앞,0,0,126.9743576,37.48712158,0,동작구,사당3동
ST-2361,2088.상도중앙하이츠빌 입구,0,0,126.94972992,37.50024796,0,동작구,상도1동
ST-2362,2089.사당역10번출구(금강빌딩),8,6,126.98150635,37.4791069,14,동작구,사당1동
ST-2363,2090.기아자동차 사당점 앞,0,1,126.97792053,37.48377991,1,동작구,사당1동
ST-2364,2091. 이수역9번출구,10,3,126.98059082,37.48470306,13,동작구,사당1동
ST-2365,2092.흑석한강푸르지오(110동),0,5,126.96471405,37.50311279,5,동작구,흑석동
ST-2366,2093.상도SH빌아파트 입구,8,0,126.95459747,37.50321198,8,동작구,상도1동
ST-2367,2094.숭실대학교(중문) ,11,0,126.95637512,37.49550629,11,동작구,상도1동
ST-2368,2095.경문고등학교 앞,8,0,126.98240662,37.49150085,8,동작구,사당2동
ST-2369,2096.서울특별시 동작관악교육지원청,0,0,126.94065094,37.50251389,0,동작구,상도2동
ST-702,2102. 봉림교 교통섬,14,6,126.92688751,37.48408508,20,관악구,신림동
ST-703,2103. 신림동 우방아파트,0,4,126.91927338,37.4891777,4,관악구,신사동
ST-712,2104. 사당역 5번출구,13,1,126.98133087,37.47608948,14,관악구,남현동
ST-704,2105. 미성동 신림체육센터,14,2,126.91460419,37.48025131,16,관악구,미성동
ST-705,2106. 세이브마트,34,7,126.91840363,37.47372818,41,관악구,난곡동
ST-714,2108. 은천치안센터,11,30,126.94319916,37.48334122,41,관악구,은천동
ST-882,2109. 은천로입구 가로공원,22,12,126.9358139,37.48620224,34,관악구,은천동
ST-950,2110. 조원동 미성아파트,12,3,126.90203094,37.48319244,15,관악구,조원동
ST-965,2111. 서울대입구역 1번출구,2,2,126.95331573,37.48086929,4,관악구,낙성대동
ST-715,2112. 서울대입구역 마에스트로,1,2,126.95064545,37.4813385,3,관악구,청룡동
ST-883,2115. 관악구시설관리공단,17,1,126.90283966,37.47991562,18,관악구,조원동
ST-717,2116. 에이스에이존빌딩,2,0,126.95082855,37.48170471,2,관악구,중앙동
ST-884,2119. 중앙동 동진빌딩,1,4,126.95469666,37.48425674,5,관악구,중앙동
ST-719,2122. 낙성대로 입구,1,2,126.960495,37.47805786,3,관악구,낙성대동
ST-707,2127. 난곡종점,1,0,126.91947937,37.46488571,1,관악구,난향동
ST-720,2128. 관악구청교차로,2,1,126.95258331,37.47916412,3,관악구,낙성대동
ST-721,2129. 낙성대 과학전시관,0,0,126.95814514,37.46905518,0,관악구,낙성대동
ST-722,2130. 영어마을 관악캠프,0,0,126.95842743,37.47198868,0,관악구,낙성대동
ST-976,2136. 신림역 8번출구,22,11,126.93006897,37.48450851,33,관악구,신림동
ST-723,2137. KT&G 관악지점,1,1,126.93653107,37.48490143,2,관악구,은천동
ST-951,2139. 서울신성초등학교,5,0,126.93701935,37.4711647,5,관악구,서림동
ST-724,2140. 신림1교 교차로,21,4,126.93186188,37.47842789,25,관악구,서원동
ST-885,2141. 미림여고입구 교차로,24,2,126.93341064,37.47229385,26,관악구,서림동
ST-886,2143. 서울산업정보학교,8,5,126.94219971,37.4706955,13,관악구,대학동
ST-709,2144. 난우길입구,31,3,126.91675568,37.47777557,34,관악구,미성동
ST-725,2145. 은천초등학교 육교,0,0,126.9429245,37.48635864,0,관악구,은천동
ST-887,2148. 낙성대역 3번출구 뒤,0,3,126.96339417,37.47702789,3,관악구,인헌동
ST-952,2156. 신림푸르지오아파트,9,4,126.90932465,37.48072052,13,금천구,독산3동
ST-1156,2159. 인헌초교,2,0,126.95922852,37.47509003,2,관악구,낙성대동
ST-1259,2164. 관악우체국,19,7,126.93287659,37.48476791,26,관악구,신림동
ST-1260,2165. JK장평타워,1,1,126.96536255,37.47648239,2,관악구,행운동
ST-1262,2167. 낙성대역 1번출구,1,0,126.96495819,37.47629547,1,관악구,인헌동
ST-1264,2169. 봉천역 2번출구,4,6,126.94213104,37.48218918,10,관악구,청룡동
ST-1265,2170. 조원동 강남힐병원,7,1,126.91203308,37.48152924,8,관악구,조원동
ST-1337,2171. 서울대입구역 5번출구,10,0,126.95200348,37.48154831,10,관악구,중앙동
ST-1267,2172. 나들목공원,20,4,126.94451141,37.46940613,24,관악구,대학동
ST-1268,2173. 당곡사거리,14,1,126.92746735,37.48974991,15,관악구,보라매동
ST-1269,2174. 삼성디지털프라자관악점,5,1,126.92848206,37.48856354,6,관악구,신림동
ST-1270,2175. 신림동걷고싶은문화의거리입구,8,7,126.92870331,37.48730087,15,관악구,신림동
ST-1357,2176. 보라매공원 보도육교,24,3,126.91638184,37.48899078,27,관악구,신사동
ST-1547,2178. 서울대학교 정문,15,1,126.94932556,37.46709442,16,관악구,대학동
ST-1548,2179. 양녕로 입구,7,13,126.94615936,37.48218918,20,관악구,은천동
ST-1678,2183. 동방1교,14,1,126.93392181,37.47182846,15,관악구,서림동
ST-1702,2184. 구암초등학교 버스정류장,1,8,126.94592285,37.48949051,9,관악구,은천동
ST-1757,2185. 대학동 고시촌,11,2,126.93865204,37.47046661,13,관악구,대학동
ST-2370,2186. 낙성대입구삼거리,1,0,126.95960999,37.4788208,1,관악구,행운동
ST-2371,2187. 현대시장사거리,6,4,126.9475174,37.4867363,10,관악구,중앙동
ST-2373,2189. 봉천역 4번출구,8,8,126.94140625,37.48275375,16,관악구,은천동
ST-2374,2190.도원맨션,5,11,126.93915558,37.48368835,16,관악구,은천동
ST-2375,2191.대학동주민센터 ,4,9,126.93648529,37.47068787,13,관악구,대학동
ST-2379,2195.은천교회,7,4,126.93450928,37.48464584,11,관악구,서원동
ST-2380,2196. 봉천역 3번출구,9,5,126.93902588,37.4833107,14,관악구,청룡동
ST-2382,2198.사랑의병원,0,0,126.95693207,37.47946548,0,관악구,낙성대동
ST-2383,2199.신봉천주유소 A,0,0,126.95869446,37.47877121,0,관악구,낙성대동
ST-741,2201. 본마을 정류소 앞,20,0,127.05148315,37.4532814,20,서초구,양재2동
ST-742,2202.청계산입구역 1번출구,6,1,127.05437469,37.44893646,7,서초구,양재2동
ST-925,2203. 청계산입구역 2번출구,12,2,127.05501556,37.44765854,14,서초구,양재2동
ST-743,2205. 내곡3단지 어린이공원 앞,0,1,127.05937958,37.45375061,1,서초구,안골
ST-744,2206. 언남초등학교 앞,0,1,127.06210327,37.45435715,1,서초구,안골
ST-926,2207. 내곡파출소 뒤 정자,1,1,127.06492615,37.45440674,2,안골,내곡동
ST-745,2210. 반포1동 주민센터 앞,0,0,127.0131073,37.50509644,0,서초구,반포1동
ST-927,2211. 서초구립반포도서관 앞,6,0,127.01231384,37.50263596,6,서초구,반포1동
ST-746,2212.서초현대4차아파트 201동 맞은편,6,8,127.01861572,37.50065231,14,서초구,서초4동
ST-747,2213. 고속터미널역 5번출구 앞,9,5,127.0022583,37.5022316,14,서초구,반포2동
ST-748,2214. 신반포역 2번출구 앞,30,8,126.99748993,37.50411606,38,서초구,반포2동
ST-928,2215. 반포종합운동장 입구,14,3,126.99547577,37.5017128,17,서초구,반포2동
ST-750,"2219. 고속터미널역 8-1번, 8-2번 출구 사이",13,3,127.0039444,37.50619888,16,서초구,반포3동
ST-752,2221. 방일초교 마을버스 정류장,24,2,126.99468231,37.48561096,26,서초구,방배1동
ST-753,2222.사당역 12번출구 뒤,3,6,126.98203278,37.47806931,9,서초구,방배2동
ST-754,2223. 방배래미안 정문 앞,12,11,126.98300934,37.47261047,23,서초구,방배2동
ST-755,2225.백석예술대학교 제3캠퍼스 앞,0,0,126.99524689,37.4737587,0,서초구,방배3동
ST-756,2226. 신동아럭스빌아파트 앞,0,0,127.00138855,37.47518158,0,서초구,방배3동
ST-757,2227.방배열린문화센터 앞,9,4,126.99252319,37.48905182,13,서초구,방배본동
ST-758,2228.뒷벌공원 옆,8,1,126.986763,37.48976898,9,서초구,방배본동
ST-759,2229.로고스교회 맞은 편,11,5,126.98496246,37.48701096,16,서초구,방배본동
ST-760,2230.이수역 4번 출구,12,2,126.98262787,37.4858284,14,서초구,방배본동
ST-761,2231. 삼성타운(삼성생명) A동 맞은편,31,2,127.02496338,37.49691391,33,서초구,서초2동
ST-762,2233. 서초신동아1차아파트 옆,7,9,127.02295685,37.49111176,16,서초구,서초2동
ST-763,2235.KT 서초지사 앞,5,4,127.00270081,37.48215866,9,서초구,서초3동
ST-764,2237.서울남부터미널 대합실 입구,2,0,127.01486969,37.48455811,2,서초구,서초3동
ST-765,2239.교대역 6번출구,8,2,127.01378632,37.49421692,10,서초구,서초4동
ST-766,2241.양재전화국 사거리,3,0,127.04170227,37.48537827,3,강남구,도곡1동
ST-767,2242.양재역 11번 출구 앞,1,0,127.03417969,37.48398972,1,서초구,양재1동
ST-768,2243.서울가정법원,16,0,127.03672791,37.48149109,16,서초구,양재1동
ST-769,2244.교육개발원입구 교차로,16,4,127.03890991,37.47785187,20,서초구,양재1동
ST-770,2245.양재초등학교 맞은편,22,17,127.03050995,37.47361374,39,서초구,양재1동
ST-889,2246. 서울시 품질시험소 앞,18,4,127.02900696,37.46920013,22,서초구,양재1동
ST-771,2247.섬들근린공원,2,3,127.02661896,37.46263885,5,서초구,양재1동
ST-929,2248. 서초리슈빌S 글로벌 앞,0,0,127.02474213,37.45995331,0,서초구,양재1동
ST-880,2249. 우솔초등학교 맞은편,0,0,127.01934814,37.45623398,0,서초구,양재1동
ST-881,2250. 서초유치원 맞은편,0,0,127.01628876,37.4557991,0,서초구,양재1동
ST-781,2251. 더케이호텔 입구(양재2) ,25,1,127.03447723,37.46750641,26,서초구,양재2동
ST-890,2252. 잔디마을 마을버스 정류장,30,0,127.03604126,37.46332169,30,서초구,양재2동
ST-772,2255. 양재시민의숲역 1번출구,13,4,127.03862,37.47016525,17,서초구,양재2동
ST-773,2256.양재동 꽃시장 입구,10,2,127.0403595,37.46768951,12,서초구,양재2동
ST-774,2257. 청계산 입구 삼거리,14,2,127.04611206,37.46268845,16,서초구,양재2동
ST-775,2258.구룡사 삼거리,0,0,127.05059052,37.47153854,0,서초구,양재2동
ST-780,2259. 잠원역 3번-4번 출구사이 ,3,5,127.01117706,37.51298904,8,서초구,잠원동
ST-879,2263. 바우뫼문화복지회관,2,4,127.02684021,37.47192764,6,서초구,양재1동
ST-935,2264. 이수역 1번출구,11,2,126.98271942,37.48897171,13,서초구,방배본동
ST-949,2265. 이수고가차도 남단,8,3,126.98306274,37.49474335,11,서초구,방배4동
ST-1158,2266. 서초역 3번출구,17,5,127.00816345,37.49053955,22,서초구,서초3동
ST-1160,2268. 서초4동주민센터 ,4,0,127.0222702,37.50231934,4,서초구,서초4동
ST-1161,2269. 주홍교 하부,1,2,127.01605225,37.51034927,3,서초구,잠원동
ST-1162,2270. 서초포레스타 7단지,2,0,127.05773926,37.44896698,2,서초구,내곡동
ST-1163,2271. 내방역 8번출구 앞,0,3,126.99411774,37.48802185,3,서초구,방배본동
ST-1164,2272. 교대입구 교차로,0,0,127.01058197,37.4873085,0,서초구,서초3동
ST-1165,2273. 일동제약 사거리,5,1,127.03826904,37.47782898,6,서초구,양재1동
ST-1166,2274. 양재시민의숲역 3번출구,7,0,127.03982544,37.4692421,7,서초구,양재2동
ST-1167,2275. 염곡치안센터 건너편,0,0,127.04907227,37.46149445,0,서초구,양재2동
ST-1169,2277. 길마중4교 하부,11,11,127.01560211,37.51483917,22,서초구,잠원동
ST-1305,2279. 교대역 5번출구뒤,12,3,127.01418304,37.49361801,15,서초구,서초1동
ST-1306,2280. 서울서초고용센터앞,12,3,127.01097107,37.48416138,15,서초구,서초3동
ST-1307,2281. 연세사랑병원신관앞,0,1,126.98628235,37.47597885,1,서초구,방배3동
ST-1309,2283. 그룹한빌딩옆,10,2,126.98916626,37.48652649,12,서초구,방배본동
ST-1310,2284. CJ오쇼핑앞,6,2,126.98680115,37.4681015,8,서초구,방배2동
ST-1311,2285. LH서초3단지 301동 맞은편,0,1,127.02265167,37.45742416,1,서초구,양재1동
ST-1312,2286. 탑성마을입구,0,0,127.05588531,37.4585495,0,서초구,안골
ST-1313,2287. 능안마을입구,2,2,127.06710052,37.45561981,4,서초구,안골
ST-1314,2288. 안골마을입구,1,1,127.06445312,37.45560837,2,서초구,안골
ST-1315,2289. 남태령역 2번출구,5,1,126.98852539,37.46429825,6,서초구,방배2동
ST-1360,2293. SPC 앞,6,0,127.03699493,37.48479843,6,강남구,도곡1동
ST-1361,2294. 두상빌딩 앞,6,2,127.04624176,37.47590637,8,서초구,양재2동
ST-1404,2297. 남부터미널역 1번출구,1,0,127.01592255,37.485672,1,서초구,서초3동
ST-1406,2299. 한전아트센터 앞,1,0,127.02806091,37.48646927,1,서초구,서초2동
ST-777,2301. 현대고등학교 건너편,6,0,127.02178955,37.52407074,6,강남구,압구정동
ST-787,2302. 교보타워 버스정류장(신논현역 3번출구 후면),0,0,127.02427673,37.5055809,0,강남구,논현1동
ST-788,2303. 논현역 10번출구,13,1,127.02146149,37.51137161,14,강남구,논현1동
ST-789,2304. 대현그린타워,14,0,127.03565216,37.5116272,14,강남구,논현2동
ST-790,2305. MCM 본사 직영점 앞,9,0,127.03450775,37.52064133,9,강남구,논현2동
ST-791,2306. 압구정역 2번 출구 옆,1,3,127.02871704,37.5271225,4,강남구,신사동
ST-792,2307. 압구정 한양 3차 아파트,2,0,127.03901672,37.52838135,2,강남구,압구정동
ST-793,2308. 압구정파출소 앞,5,4,127.03559875,37.52930069,9,강남구,압구정동
ST-783,2309. 청담역(우리들병원 앞),25,2,127.04938507,37.51890182,27,강남구,청담동
ST-794,2310. 청담동 맥도날드 옆(위치),4,1,127.04017639,37.52361298,5,강남구,청담동
ST-786,2311. 학동로 래미안 아파트 앞,0,1,127.04302216,37.51777267,1,강남구,청담동
ST-795,2312. 청담역 13번 출구 앞,12,5,127.05632782,37.52058029,17,강남구,청담동
ST-796,2313. 금원빌딩 앞,5,0,127.05246735,37.52511597,5,강남구,청담동
ST-798,2314. 청담나들목입구,12,5,127.06015015,37.52101517,17,강남구,청담동
ST-799,2315. 봉은사역 5번출구 옆,20,1,127.06111908,37.51424789,21,강남구,삼성1동
ST-784,2317. 삼성도로공원,10,0,127.06620026,37.51588821,10,강남구,삼성1동
ST-801,2318. 삼성중앙역4번출구(문화센터더 리빌),2,0,127.05503082,37.51357651,2,강남구,삼성1동
ST-802,2319. 포스코사거리 서측(수협 삼성동 지점),10,2,127.05467987,37.50660706,12,강남구,삼성2동
ST-803,2320. 도곡역 대치지구대 방향,7,3,127.05696869,37.4919281,10,강남구,대치1동
ST-804,2321. 학여울역 사거리,0,0,127.06944275,37.49611664,0,강남구,대치2동
ST-806,2323. 주식회사 오뚜기 정문 앞,18,1,127.06720734,37.50221252,19,강남구,대치2동
ST-807,2324. 천주교 대치 2동 교회 옆,4,2,127.06622314,37.50043869,6,강남구,대치2동
ST-808,2325. 대치삼성아파트 앞 교차로,0,1,127.05931854,37.4986496,1,강남구,대치1동
ST-809,2326. 대치동 삼성로,1,2,127.05879974,37.50239563,3,강남구,대치4동
ST-810,2327. 뱅뱅사거리 랜드마크타워 앞,22,5,127.03146362,37.49055099,27,강남구,역삼1동
ST-811,2328. 르네상스 호텔 사거리 역삼지하보도 7번출구 앞,14,0,127.04273224,37.50321198,14,강남구,역삼1동
ST-812,2329. 르네상스호텔사거리 역삼지하보도 2번출구,2,0,127.04319,37.50235748,2,강남구,역삼2동
ST-813,2330. 역삼월드메르디앙아파트 앞,1,0,127.03945923,37.49219894,1,강남구,역삼1동
ST-814,2331. 동영문화센터앞,1,0,127.04460144,37.49805069,1,강남구,역삼2동
ST-815,2332. 선릉역3번출구,4,0,127.0490799,37.50400925,4,강남구,대치4동
ST-816,2333. 양재역 3번출구 주변,17,0,127.03407288,37.48515701,17,강남구,도곡1동
ST-817,2334. 삼호아파트 2동 ( 간선도로),1,0,127.04589844,37.49375916,1,강남구,도곡1동
